id,canonical_name,property_type_std,district_normalized,district,cluster_area,address_road,lat,lng,status_std,room_count,entity_id,hongdae_zone,phone,license_date,property_type_raw,raw_status,raw_status_detail,raw_x,raw_y,source_priority,name_eng,floors_above,floors_below,building_area
1,(주)서울가든,hotel,마포구,마포구,,"서울특별시 마포구 마포대로 58 (도화동, 가든호텔)",37.540695,126.94547,active,372.0,1,,02-717-9441,1979-08-02,관광호텔업,영업/정상,영업중,195366.504486477,448716.823596557,seoul_open_data,SEOUL GARDEN Corp.,15.0,2.0,26310.01
2,서서울관광호텔,unknown,마포구,마포구,,서울특별시 마포구 합정동 381-17번지,,,closed,0.0,2,,332-1122,1999-07-26,관광숙박업,폐업,폐업,,,seoul_open_data,,0.0,0.0,
3,호텔야자,hotel,마포구,마포구,홍대권,"서울특별시 마포구 잔다리로 67 (서교동, 유양관광호텔)",37.553602,126.913979,closed,42.0,3,fringe_hongdae,3143-4595,2001-05-11,관광호텔업,폐업,폐업,192584.698023412,450151.420026822,seoul_open_data,HOTEL YAJA,5.0,1.0,1504.56
4,(주)아주호텔서교,hotel,마포구,마포구,홍대권,서울특별시 마포구 양화로 130 (서교동),37.554432,126.918361,closed,135.0,4,hongdae_area,330-7777,2004-04-13,관광호텔업,폐업,폐업,192971.947727746,450243.232547428,seoul_open_data,"Aju Hotel Seokyo Co., LTD.",0.0,0.0,
5,써클호텔,hotel,마포구,마포구,,"서울특별시 마포구 양화로 15 (합정동, 호텔써클)",37.548856,126.907867,active,40.0,5,,338-0018,2005-07-14,관광호텔업,영업/정상,영업중,192044.052062349,449625.190175398,seoul_open_data,CIRCLE HOTEL,9.0,3.0,1504.56
6,(주)호텔롯데 롯데시티 호텔마포,hotel,마포구,마포구,,"서울특별시 마포구 마포대로 109 (공덕동, 롯데캐슬프레지던트)",37.544931,126.947706,active,284.0,6,,02-6009-1000,2009-03-09,관광호텔업,영업/정상,영업중,195564.375757848,449186.933273231,seoul_open_data,"HOTEL LOTTE CO., LTD. LOTTE CITY HOTEL MAPO",8.0,2.0,25713.7
7,스탠포드호텔코리아(주) 스탠포드호텔서울,hotel,마포구,마포구,,"서울특별시 마포구 월드컵북로58길 15 (상암동, 스탠포드호텔코리아)",37.582325,126.883774,active,239.0,7,,6016-0001,2011-10-11,관광호텔업,영업/정상,영업중,189919.550051873,453342.222208599,seoul_open_data,STANFORD HOTEL SEOUL,12.0,5.0,26278.31
8,까사빌 신촌 서울,hotel,마포구,마포구,홍대권,서울특별시 마포구 서강로 137 (노고산동),37.554624,126.932681,closed,183.0,8,hongdae_area,6220-4000,2012-03-08,가족호텔업,폐업,폐업,194237.345664459,450263.50766141,seoul_open_data,CasaVille Shinchon Seoul,14.0,0.0,4123.05
9,더 엠 호텔,hotel,마포구,마포구,,서울특별시 마포구 월드컵북로 120 (성산동),37.563993,126.910552,closed,56.0,9,,336-0001,2012-10-18,가족호텔업,폐업,폐업,192282.955607289,451304.996932629,seoul_open_data,THE M HOTEL,10.0,2.0,3043.28
10,메리골드호텔,hotel,마포구,마포구,홍대권,서울특별시 마포구 양화로 112 (서교동),37.553312,126.916859,closed,186.0,10,hongdae_area,332-5656,2013-02-05,관광호텔업,폐업,폐업,192839.116937246,450119.061832193,seoul_open_data,MARIGOLD HOTEL,10.0,4.0,14252.1
11,호텔 더 디자이너스 홍대,hotel,마포구,마포구,홍대권,서울특별시 마포구 양화로 86 (서교동),37.551903,126.914687,active,80.0,11,fringe_hongdae,326-5801,2013-02-05,관광호텔업,영업/정상,영업중,192647.075671686,449962.851191072,seoul_open_data,HOTEL THE DESIGNERS HONGDAE,15.0,3.0,3868.0
12,필로소퍼,hostel,마포구,마포구,홍대권,"서울특별시 마포구 동교로 217, 홍대LJ빌딩 2층~4층 (동교동)",37.5595,126.920634,active,17.0,12,core_hongdae,,2014-10-30,호스텔업,영업/정상,영업중,193173.291498782,450805.577656258,seoul_open_data,PILLOWSOPHER,4.0,1.0,377.33
13,더휴식 아늑 홍대점,hotel,마포구,마포구,홍대권,서울특별시 마포구 동교로 162-7 (서교동),37.555547,126.91747,active,38.0,13,hongdae_area,332-2333,2014-12-10,관광호텔업,영업/정상,영업중,192893.333078404,450367.063858996,seoul_open_data,Hotel The Ore,9.0,3.0,1255.7
14,신라스테이 마포,hotel,마포구,마포구,,서울특별시 마포구 마포대로 83 (도화동),37.542874,126.946808,active,383.0,14,,69799000,2015-08-26,관광호텔업,영업/정상,영업중,195484.919869451,448958.582313523,seoul_open_data,Shiila Stay Mapo,24.0,4.0,18470.19
15,Alveolus(앨비어러스),hostel,마포구,마포구,,서울특별시 마포구 희우정로16길 31 (망원동),37.554705,126.900744,closed,1.0,15,,,2016-05-27,호스텔업,폐업,폐업,191415.339342271,450275.024623503,seoul_open_data,Alveolus,1.0,1.0,72.56
16,아만티 호텔 서울,hotel,마포구,마포구,홍대권,서울특별시 마포구 월드컵북로 31 (서교동),37.557196,126.915698,active,150.0,16,hongdae_area,02-332-0061,2016-06-07,관광호텔업,영업/정상,영업중,192736.935397287,450550.232656274,seoul_open_data,Amanti Hotel Seoul,14.0,5.0,18410.72
17,NEO SEOUL,hostel,마포구,마포구,홍대권,서울특별시 마포구 동교로 142-13 (서교동),37.55463,126.915247,closed,18.0,17,hongdae_area,02  323 9220,2016-09-06,호스텔업,폐업,폐업,192696.777446115,450265.462973201,seoul_open_data,NEO SEOUL,3.0,1.0,654.2
18,케이호스텔,hostel,마포구,마포구,,서울특별시 마포구 서강로 19 (신정동),37.545199,126.927054,closed,27.0,18,,02-715-6000,2016-09-06,호스텔업,폐업,폐업,193739.315165771,449217.82970806,seoul_open_data,K Hostel,12.0,2.0,976.4
19,나비호스텔,hostel,마포구,마포구,홍대권,서울특별시 마포구 양화로 177-1 (동교동),37.557985,126.921837,active,27.0,19,core_hongdae,02  363 3941,2016-10-17,호스텔업,영업/정상,영업중,193279.38663668,450637.276776739,seoul_open_data,Nabi Hostel,10.0,1.0,992.59
20,나인브릭,hotel,마포구,마포구,홍대권,"서울특별시 마포구 홍익로5길 32 (서교동, 나인브릭)",37.553784,126.917679,active,94.0,20,hongdae_area,02-3141-8800,2017-02-21,관광호텔업,영업/정상,영업중,192911.642624498,450171.317352359,seoul_open_data,9BRICK,16.0,2.0,3784.07
21,에이치에비뉴 호텔 이대점,hotel,마포구,마포구,신촌권,서울특별시 마포구 신촌로 152 (노고산동),37.556239,126.939683,active,94.0,21,,0505-068-7207,2017-06-30,관광호텔업,영업/정상,영업중,194856.148175113,450442.424814188,seoul_open_data,H-AVENUE Hotel,13.0,2.0,2772.94
22,글래드호텔 마포,hotel,마포구,마포구,,"서울특별시 마포구 마포대로 92, 효성해링턴 스퀘어 (도화동)",37.543012,126.948298,active,378.0,22,,3704-8465,2017-12-29,관광호텔업,영업/정상,영업중,195616.580723896,448973.867131637,seoul_open_data,GLAD HOTEL Mapo,24.0,2.0,26504.2
23,(주)호텔롯데 L7홍대,hotel,마포구,마포구,홍대권,"서울특별시 마포구 양화로 141, 롯데호텔 L7홍대 (동교동)",37.555728,126.918744,active,340.0,23,hongdae_area,2289-1000,2018-01-29,관광호텔업,영업/정상,영업중,193005.883365365,450387.023230304,seoul_open_data,HOTELLOTTE L7 HONGDAE,20.0,5.0,22928.75
24,라이즈호텔,hotel,마포구,마포구,홍대권,서울특별시 마포구 양화로 130 (서교동),37.554432,126.918361,active,274.0,24,hongdae_area,"330-7872, 3307570",2018-04-20,관광호텔업,영업/정상,영업중,192971.947727746,450243.232547428,seoul_open_data,RYSE HOTEL,20.0,5.0,29331.57
25,클레오,hostel,마포구,마포구,홍대권,서울특별시 마포구 연희로 27 (동교동),37.561389,126.923764,active,24.0,25,core_hongdae,023238811,2018-08-28,호스텔업,영업/정상,영업중,193449.985027039,451015.020894903,seoul_open_data,,7.0,1.0,600.69
26,홀리데이 인 익스프레스 서울 홍대,hotel,마포구,마포구,홍대권,서울특별시 마포구 양화로 188 (동교동),37.559528,126.921905,active,294.0,26,core_hongdae,027682661,2018-08-31,관광호텔업,영업/정상,영업중,193285.549735897,450808.571641119,seoul_open_data,Holiday Inn Express Seoul Hongdae,710.0,0.0,13610.51
27,샤이닝 글로리 하우스,hotel,마포구,마포구,,"서울특별시 마포구 희우정로 90, 샤이닝글로리하우스 (망원동)",37.553777,126.900034,closed,69.0,27,,02-336-9000,2019-12-30,관광호텔업,폐업,폐업,191352.474870905,450172.065593512,seoul_open_data,SHINING GLORY HOUSE,7.0,1.0,3828.39
28,보보호텔,hotel,마포구,마포구,홍대권,"서울특별시 마포구 양화로 94, 보보호텔 (서교동)",37.552319,126.915312,active,55.0,28,fringe_hongdae,02-324-0021,2020-12-11,관광호텔업,영업/정상,영업중,192702.357899428,450008.91757619,seoul_open_data,,5.0,1.0,2625.0
29,주니비노호텔,hotel,마포구,마포구,,"서울특별시 마포구 양화진2길 31, 주니비노 호텔 (합정동)",37.547948,126.907862,active,68.0,29,,02-332-7771,2021-11-23,관광호텔업,영업/정상,영업중,192043.507297118,449524.361048163,seoul_open_data,,12.0,2.0,6173.93
30,로이넷 호텔 서울 마포,hotel,마포구,마포구,,서울특별시 마포구 마포대로 67 (도화동),37.541814,126.945393,active,341.0,30,,02-3702-0300,2021-12-22,관광호텔업,영업/정상,영업중,195359.808050656,448841.031803244,seoul_open_data,,24.0,4.0,20616.76
31,머큐어 앰배서더 서울 홍대,hotel,마포구,마포구,홍대권,"서울특별시 마포구 양화로 144, MERCURE 앰배서더 HOTEL 홍대 (동교동)",37.555321,126.919511,active,270.0,31,hongdae_area,02-3774-1101,2021-12-22,관광호텔업,영업/정상,영업중,193073.64466155,450341.82321403,seoul_open_data,,18.0,6.0,13665.81
32,호텔 나루,hotel,마포구,마포구,,서울특별시 마포구 마포대로 8 (마포동),37.537217,126.941356,active,196.0,32,,02-6410-1000,2022-10-12,관광호텔업,영업/정상,영업중,195002.716187445,448331.067134872,seoul_open_data,Hotel Naru,24.0,5.0,27340.92
33,크리에이터타운 서교,hotel,마포구,마포구,홍대권,서울특별시 마포구 월드컵북로5길 41 (서교동),37.556264,126.91392,active,296.0,33,fringe_hongdae,,2023-06-30,관광호텔업,영업/정상,영업중,192579.727675563,450446.890829184,seoul_open_data,,7.0,3.0,13942.06
34,스테이 더 이룸,hostel,마포구,마포구,홍대권,"서울특별시 마포구 월드컵북로2길 19, 2~5층 (동교동)",37.556354,126.919036,active,7.0,34,core_hongdae,,2025-04-21,호스텔업,영업/정상,영업중,193031.771142009,450456.462818787,seoul_open_data,Stay the Eeroom,0.0,0.0,456.77
35,비아르떼,hostel,마포구,마포구,홍대권,"서울특별시 마포구 신촌로4길 10, 2층 (동교동)",37.557497,126.925462,active,2.0,35,core_hongdae,,2025-06-17,호스텔업,영업/정상,영업중,193599.722243995,450582.835698566,seoul_open_data,B-Arte,2.0,0.0,77.49
36,슬로우온 호스텔,hostel,마포구,마포구,홍대권,"서울특별시 마포구 양화로 118, 5층 (서교동)",37.553825,126.917327,active,15.0,36,hongdae_area,,2025-07-28,호스텔업,영업/정상,영업중,192880.563694394,450175.878676492,seoul_open_data,Slow-on Hostel,5.0,0.0,242.93
37,더 센트럴 홍대,hostel,마포구,마포구,홍대권,"서울특별시 마포구 양화로 124, 3층 (서교동)",37.554279,126.91797,active,9.0,37,hongdae_area,,2025-09-02,호스텔업,영업/정상,영업중,192937.426138742,450226.210530626,seoul_open_data,,3.0,0.0,196.0
38,코코스테이,hostel,마포구,마포구,홍대권,"서울특별시 마포구 신촌로12나길 32, 2층 (노고산동)",37.554854,126.931371,active,7.0,38,hongdae_area,,2025-09-02,호스텔업,영업/정상,영업중,194121.619460487,450289.132332369,seoul_open_data,,2.0,0.0,131.71
39,비아르떼 서울,hostel,마포구,마포구,홍대권,"서울특별시 마포구 신촌로4길 5-5, 1층 (동교동)",37.557624,126.925964,active,2.0,39,core_hongdae,,2025-10-21,호스텔업,영업/정상,영업중,193644.058184763,450596.886231733,seoul_open_data,,1.0,0.0,57.23
40,골든(Golden) 신촌홍대점,hostel,마포구,마포구,홍대권,"서울특별시 마포구 서강로20길 11, 2층 (노고산동)",37.553921,126.933627,active,10.0,40,hongdae_area,,2025-12-15,호스텔업,영업/정상,영업중,194320.816094842,450185.405671283,seoul_open_data,,2.0,0.0,145.96
41,로프트13,hostel,마포구,마포구,홍대권,"서울특별시 마포구 서강로 132, BS타워 13층 (노고산동)",37.553863,126.932548,active,7.0,41,hongdae_area,,2025-12-15,호스텔업,영업/정상,영업중,194225.490221946,450179.109724203,seoul_open_data,,13.0,0.0,170.7
42,스테이플랜비,hostel,마포구,마포구,홍대권,"서울특별시 마포구 서강로 133, 신촌병우빌딩 5,7층 (노고산동)",37.55441,126.932363,active,14.0,42,hongdae_area,,2026-02-02,호스텔업,영업/정상,영업중,194209.190531122,450239.854658343,seoul_open_data,STAY PLAN B,0.0,0.0,501.9
43,더집서울,hostel,마포구,마포구,홍대권,"서울특별시 마포구 서강로 132, BS타워 4,7층 (노고산동)",37.553863,126.932548,active,7.0,43,hongdae_area,,2026-02-02,호스텔업,영업/정상,영업중,194225.490221946,450179.109724203,seoul_open_data,THEZIP SEOUL,0.0,0.0,341.4
44,신촌스테이,hostel,마포구,마포구,홍대권,"서울특별시 마포구 서강로 135, JK빌딩 2층 (노고산동)",37.55451,126.932533,active,7.0,44,hongdae_area,,2026-03-11,호스텔업,영업/정상,영업중,194224.210759149,450250.907145243,seoul_open_data,Sinchon Stay,2.0,0.0,193.19
45,코스모하버 홍대,hostel,마포구,마포구,홍대권,서울특별시 마포구 잔다리로 49 (서교동),37.552268,126.915526,active,0.0,45,fringe_hongdae,,2026-03-19,호스텔업,영업/정상,영업중,192721.261485839,450003.219247786,seoul_open_data,COSMOHARBOR Hongdae,5.0,1.0,
46,스테이히어어게인,hostel,마포구,마포구,홍대권,서울특별시 마포구 월드컵북로2길 19 (동교동),37.556354,126.919036,active,0.0,46,core_hongdae,,2026-03-19,호스텔업,영업/정상,영업중,193031.771142009,450456.462818787,seoul_open_data,"STAY HERE, AGAIN",0.0,0.0,
47,K-그랜드 호스텔 신촌,unknown,마포구,마포구,홍대권,"서울특별시 마포구 신촌로16길 34, 백산빌딩 (노고산동)",37.554233,126.931324,active,,47,hongdae_area,,2026-04-03,관광숙박업,영업/정상,영업중,194117.365875122,450220.187710375,seoul_open_data,,,,
48,홍대 온기,unknown,마포구,마포구,홍대권,"서울특별시 마포구 양화로 118, 4층 (서교동)",37.553825,126.917327,active,,48,hongdae_area,,2026-04-03,관광숙박업,영업/정상,영업중,192880.563694394,450175.878676492,seoul_open_data,,,,
49,룩앤스테이,unknown,마포구,마포구,홍대권,"서울특별시 마포구 월드컵북로2길 19, 8층 (동교동)",37.556354,126.919036,active,,49,core_hongdae,,2026-04-07,관광숙박업,영업/정상,영업중,193031.771142009,450456.462818787,seoul_open_data,,,,
50,아스토리아호텔,hotel,중구,중구,,서울특별시 중구 퇴계로 176 (남학동),37.560824,126.98841,closed,0.0,50,,2268-7111,1960-06-10,관광호텔업,폐업,폐업,199161.680844774,450949.674631487,seoul_open_data,,0.0,0.0,4170.0
51,사보이호텔,hotel,중구,중구,명동권,서울특별시 중구 명동8나길 10 (충무로1가),37.561723,126.981415,active,105.0,51,,776-1811,1963-06-23,관광호텔업,영업/정상,영업중,198543.644700379,451049.580620366,seoul_open_data,Savoy Hotel,8.0,1.0,4830.0
52,메트로호텔,hotel,중구,중구,명동권,서울특별시 중구 명동9가길 14 (을지로2가),37.565127,126.980838,active,78.0,52,,776-8221,1963-06-26,관광호텔업,영업/정상,영업중,198492.801933133,451427.348965871,seoul_open_data,,9.0,1.0,4274.81
53,프레지던트호텔,hotel,중구,중구,명동권,서울특별시 중구 을지로 16 (을지로1가),37.56563,126.976544,active,303.0,53,,753-3131,1969-03-28,관광호텔업,영업/정상,영업중,198113.370663648,451483.299976911,seoul_open_data,PRESIDENT HOTEL,0.0,0.0,37527.0
54,서울프린스호텔,hotel,중구,중구,,서울특별시 중구 퇴계로 130 (남산동2가),37.560673,126.983386,active,100.0,54,,752-7111,1969-04-15,관광호텔업,영업/정상,영업중,198717.824491651,450932.964839778,seoul_open_data,Seoul Prince Hotel,0.0,0.0,4297.0
55,뉴서울호텔,hotel,중구,중구,,서울특별시 중구 세종대로22길 16 (태평로1가),37.567988,126.975271,active,186.0,55,,735-9071,1969-10-15,관광호텔업,영업/정상,영업중,198000.967176821,451745.025547093,seoul_open_data,,0.0,0.0,9429.0
56,(주)조선호텔앤리조트,hotel,중구,중구,,서울특별시 중구 소공로 106 (소공동),37.564438,126.977209,active,462.0,56,,771-0500,1970-06-05,관광호텔업,영업/정상,영업중,198172.151119488,451350.969223428,seoul_open_data,JOSUNHOTELS&RESORTS Inc.,0.0,0.0,46501.0
57,(주)서울렉스호텔,hotel,중구,중구,명동권,서울특별시 중구 퇴계로10길 23 (회현동1가),37.558677,126.978089,active,108.0,57,,752-3191,1970-01-12,관광호텔업,영업/정상,영업중,198249.758791197,450711.482993526,seoul_open_data,,0.0,0.0,5201.0
58,호텔 PJ,hotel,중구,중구,,서울특별시 중구 마른내로 71 (인현동2가),37.564812,126.99281,active,272.0,58,,2266-3186,1970-07-01,관광호텔업,영업/정상,영업중,199550.506270874,451392.219693582,seoul_open_data,Hotel PJ,0.0,0.0,27504.0
59,세종호텔,hotel,중구,중구,명동권,"서울특별시 중구 퇴계로 145 (충무로2가, 세종호텔)",37.561467,126.985067,active,333.0,59,,773-6000,1973-12-24,관광호텔업,영업/정상,영업중,198866.36491721,451021.050960516,seoul_open_data,SEJONG HOTEL,0.0,0.0,22928.0
60,앰배서더 서울 풀만 호텔,hotel,중구,중구,,서울특별시 중구 동호로 287 (장충동2가),37.56018,126.999505,closed,318.0,60,,2270-3187,1975-12-02,관광호텔업,휴업,휴업,200141.998469463,450878.102981055,seoul_open_data,THE AMBASSADOR SEOUL-A PULLMAN HOTEL,0.0,0.0,32899.26
61,퍼시픽호텔,hotel,중구,중구,,서울특별시 중구 퇴계로20길 2 (남산동2가),37.559726,126.982552,active,181.0,61,,777-7811,1975-02-14,관광호텔업,영업/정상,영업중,198644.069040474,450827.86176286,seoul_open_data,PACIFIC HOTEL,0.0,0.0,13520.0
62,플라자호텔,hotel,중구,중구,,서울특별시 중구 소공로 119 (태평로2가),37.56467,126.975023,active,313.0,62,,771-2200,1976-09-01,관광호텔업,영업/정상,영업중,197979.021229862,451376.783371586,seoul_open_data,THE PLAZA HOTEL,0.0,0.0,37765.0
63,뉴국제호텔,hotel,중구,중구,,서울특별시 중구 세종대로22길 12 (태평로1가),37.567942,126.975086,closed,142.0,63,,732-0161,1977-02-28,관광호텔업,폐업,폐업,197984.6447186,451739.947695781,seoul_open_data,,0.0,0.0,8814.0
64,호텔신라,hotel,중구,중구,,서울특별시 중구 동호로 249 (장충동2가),37.55675,127.003145,active,464.0,64,,2230-3114,1978-12-23,관광호텔업,영업/정상,영업중,200463.625303538,450497.460903907,seoul_open_data,,0.0,0.0,82657.0
65,뉴천지,unknown,중구,중구,명동권,서울특별시 중구 을지로38길 20  (을지로5가),37.565884,127.000456,closed,0.0,65,,2265-6131,1983-02-21,관광숙박업,폐업,폐업,200225.983119633,451511.262755282,seoul_open_data,,0.0,0.0,4665.0
66,호텔롯데,hotel,중구,중구,명동권,"서울특별시 중구 을지로 30 (소공동, 롯데호텔)",37.56481,126.9782,active,0.0,66,,02-771-1000,1987-08-11,관광호텔업,영업/정상,영업중,198259.65357739,451392.198218657,seoul_open_data,HOTEL LOTTE,0.0,0.0,192711.81
67,로얄호텔서울,hotel,중구,중구,명동권,서울특별시 중구 명동길 61 (명동1가),37.564315,126.982754,active,310.0,67,,771-4500,1987-09-07,관광호텔업,영업/정상,영업중,198662.073220851,451337.206272624,seoul_open_data,Royal Hotel Seoul,21.0,2.0,20164.0
68,코리아나호텔,hotel,중구,중구,,"서울특별시 중구 세종대로 135 (태평로1가, 코리아나호텔)",37.568302,126.973756,active,285.0,68,,730-9911,1987-07-08,관광호텔업,영업/정상,영업중,197867.156641113,451779.880897566,seoul_open_data,KOREANA HOTEL,0.0,0.0,31896.0
69,반얀트리 클럽 앤 스파 서울,hotel,중구,중구,,서울특별시 중구 장충단로 60 (장충동2가),37.550554,127.000085,active,50.0,69,,2250-8000,1987-07-08,가족호텔업,영업/정상,영업중,200193.232424569,449809.744684888,seoul_open_data,BANYAN TREE CLUB & SPA SEOUL,21.0,2.0,21393.0
70,뉴오리엔탈관광호텔,hotel,중구,중구,명동권,서울특별시 중구 퇴계로14길 1 (회현동3가),37.560338,126.980822,closed,65.0,70,,755-9345,1987-07-10,관광호텔업,폐업,폐업,198491.235028989,450895.855106921,seoul_open_data,NEW ORIENTAL HOTEL,0.0,0.0,3252.0
71,(주)씨디엘호텔코리아(밀레니엄 힐튼 서울),hotel,중구,중구,명동권,서울특별시 중구 소월로 50 (남대문로5가),37.555307,126.972576,closed,680.0,71,,753-7788,1989-05-04,관광호텔업,폐업,폐업,197762.501510022,450337.580626313,seoul_open_data,CDL HOTEL KOREA(MILLENNIUM HILTON SEOUL),0.0,0.0,82856.0
72,호텔 파레스,hotel,중구,중구,명동권,서울특별시 중구 퇴계로8길 13 (회현동1가),37.558605,126.977122,closed,52.0,72,,777-7731,2006-09-15,관광호텔업,폐업,폐업,198164.258357664,450703.59926523,seoul_open_data,HOTEL PALACE,8.0,1.0,2772.84
73,호텔 국도,hotel,중구,중구,명동권,서울특별시 중구 을지로 164 (을지로4가),37.566176,126.993405,active,295.0,73,,2266-1446,2007-04-03,관광호텔업,영업/정상,영업중,199603.040706779,451543.643423302,seoul_open_data,HOTEL KUKDO,21.0,4.0,18305.0
74,이비스 앰배서더 명동,hotel,중구,중구,명동권,서울특별시 중구 남대문로 78 (명동1가),37.564189,126.980172,active,280.0,74,,6361-8011,2007-07-03,관광호텔업,영업/정상,영업중,198433.903211956,451323.216289926,seoul_open_data,IBIS AMBASSADOR MYEONGDONG,0.0,0.0,14697.67
75,라마다호텔앤스위트 서울센트럴,unknown,중구,중구,,"서울특별시 중구 칠패로 27  (순화동,외 1필지 C동)",37.560177,126.969175,closed,0.0,75,,,2008-01-11,관광숙박업,취소/말소/만료/정지/중지,등록취소,197462.198757043,450878.211786274,seoul_open_data,,25.0,3.0,25524.92
76,디에스디엘(주) 프레이저 플레이스 센트럴 서울,hotel,중구,중구,,"서울특별시 중구 통일로 78 (순화동,외 1필지)",37.562613,126.966986,active,258.0,76,,2220-8210,2008-10-22,가족호텔업,영업/정상,영업중,197268.885433824,451148.620978965,seoul_open_data,"DSDL Co., Ltd. FRASER PLACE CENTRAL SEOUL",23.0,5.0,34332.13
77,이스트게이트 타워호텔,unknown,중구,중구,명동권,"서울특별시 중구 장충단로13길 20  (을지로6가,케레스타 빌딩 18층~20층)",37.568643,127.004842,closed,0.0,77,,3407-0700,2009-05-22,관광숙박업,폐업,폐업,200613.510297669,451817.515366883,seoul_open_data,,0.0,0.0,5996.79
78,호텔아카시아,hotel,중구,중구,명동권,서울특별시 중구 동호로 360 (을지로5가),37.566482,126.999832,closed,134.0,78,,2277-4917,2009-09-22,관광호텔업,폐업,폐업,200170.834204583,451577.602493325,seoul_open_data,HOTEL ACACIA,12.0,3.0,8839.81
79,호텔 스카이파크3,hotel,중구,중구,명동권,서울특별시 중구 퇴계로 139 (충무로2가),37.56131,126.984485,active,136.0,79,,756-9700,2011-09-28,관광호텔업,영업/정상,영업중,198814.884440598,451003.686958642,seoul_open_data,HOTEL SKYPARK Ⅲ,9.0,2.0,5866.0
80,라마다호텔 동대문,hotel,중구,중구,명동권,서울특별시 중구 동호로 354 (을지로5가),37.565976,126.999722,closed,0.0,80,,2119-8974,2012-01-19,관광호텔업,폐업,폐업,200161.192418006,451521.415517111,seoul_open_data,,12.0,4.0,11378.0
81,호텔마누,hotel,중구,중구,명동권,서울특별시 중구 퇴계로 19 (남대문로5가),37.557141,126.971999,active,80.0,81,,757-2263,2012-11-30,관광호텔업,영업/정상,영업중,197711.630119852,450541.171402454,seoul_open_data,HOTEL MANU,10.0,3.0,4320.93
82,나인트리 바이 파르나스 서울 명동Ⅰ,hotel,중구,중구,명동권,서울특별시 중구 명동10길 51 (충무로2가),37.561588,126.983135,active,144.0,82,,750-0999,2012-12-06,관광호텔업,영업/정상,영업중,198695.658587016,451034.509517585,seoul_open_data,NINE TREE BY PARNAS SEOUL MYEONGDONG 1,0.0,0.0,6814.0
83,더 그랜드호텔 명동,hotel,중구,중구,명동권,서울특별시 중구 명동8가길 38 (충무로2가),37.561654,126.984286,active,50.0,83,,777-7905,2013-02-19,관광호텔업,영업/정상,영업중,198797.29864019,451041.893325607,seoul_open_data,,7.0,2.0,2215.0
84,프레이저플레이스남대문,hotel,중구,중구,명동권,서울특별시 중구 세종대로 58 (남대문로4가),37.561376,126.973539,active,252.0,84,,2098-0530,2013-06-10,관광호텔업,영업/정상,영업중,197847.754499522,451011.231861517,seoul_open_data,,3.0,16.0,17556.0
85,클라벤 호텔 명동 시티홀,hotel,중구,중구,,서울특별시 중구 세종대로16길 22 (북창동),37.563212,126.975219,active,129.0,85,,6362-6000,2013-06-10,관광호텔업,영업/정상,영업중,197996.303190059,451214.940443595,seoul_open_data,Klaven Hotel Myeongdong City Hall,11.0,3.0,5758.45
86,신신호텔1,unknown,중구,중구,명동권,서울특별시 중구 남대문로5길 21 (북창동),37.562312,126.976023,closed,0.0,86,,2139-1000,2013-06-17,관광숙박업,폐업,폐업,198067.276635677,451115.055200121,seoul_open_data,,11.0,2.0,1233.29
87,서울호텔신신,hotel,중구,중구,명동권,서울특별시 중구 남대문로5길 17-5 (북창동),37.562336,126.975801,active,75.0,87,,1877-2538,2013-06-17,관광호텔업,영업/정상,영업중,198047.674063427,451117.674050616,seoul_open_data,Seoul hotel shin shin,7.0,3.0,3020.92
88,써미트호텔,hotel,중구,중구,,서울특별시 중구 장충단로 198 (장충동1가),37.562247,127.003997,active,190.0,88,,2285-0540,2013-10-08,관광호텔업,영업/정상,영업중,200538.850127418,451107.614340285,seoul_open_data,Summit Hotel,9.0,3.0,9026.49
89,티마크호텔명동,hotel,중구,중구,명동권,서울특별시 중구 충무로 15 (충무로3가),37.562583,126.989679,closed,288.0,89,,2098-2050,2013-10-16,관광호텔업,폐업,폐업,199273.815368546,451144.90452668,seoul_open_data,Tmark Hotel Myeongdong,13.0,4.0,14965.47
90,24게스트하우스동대문,hostel,중구,중구,명동권,서울특별시 중구 을지로 280-2 (을지로7가),37.565371,127.006164,closed,26.0,90,,2176-3659,2014-06-20,호스텔업,폐업,폐업,200730.296204033,451454.338715818,seoul_open_data,24Guesthouse Dongdaemoon,6.0,0.0,605.09
91,스카이파크호텔 동대문1호점,hotel,중구,중구,,서울특별시 중구 동호로 335 (오장동),37.564197,126.999188,active,254.0,91,,2264-2200,2014-07-08,관광호텔업,영업/정상,영업중,200113.999615549,451324.026100645,seoul_open_data,HOTEL SKYPARK DONGDAEMUN 1,19.0,2.0,8243.76
92,데이즈 호텔 명동,hotel,중구,중구,명동권,서울특별시 중구 퇴계로 107 (충무로1가),37.560952,126.980741,active,64.0,92,,02-727-8700,2014-07-22,관광호텔업,영업/정상,영업중,198484.096465671,450963.971753178,seoul_open_data,Days Hotel Myeongdong,11.0,2.0,2932.36
93,뉴 블랑 센트럴 명동,hotel,중구,중구,,서울특별시 중구 창경궁로 20 (예관동),37.564153,126.995772,active,181.0,93,,02-2266-1553,2014-08-14,관광호텔업,영업/정상,영업중,199812.204706685,451319.127469002,seoul_open_data,New Blanc Central Myeongdong,18.0,2.0,6076.97
94,베이튼호텔,hotel,중구,중구,,서울특별시 중구 동호로 346 (오장동),37.56528,126.999844,active,161.0,94,,2269-2550,2014-10-10,관광호텔업,영업/정상,영업중,200171.935816725,451444.246421136,seoul_open_data,BAITON HOTEL,20.0,3.0,5769.68
95,맹그로브 동대문,hotel,중구,중구,,서울특별시 중구 퇴계로 334 (광희동2가),37.56413,127.005834,active,177.0,95,,,2014-10-29,관광호텔업,영업/정상,영업중,200701.142404743,451316.536804153,seoul_open_data,mangrove dongdaemun,16.0,3.0,5967.01
96,스타즈호텔 명동1호점,hotel,중구,중구,명동권,서울특별시 중구 충무로9길 20 (을지로3가),37.567031,126.988531,closed,150.0,96,,2020-4040,2015-01-12,관광호텔업,폐업,폐업,199172.465802722,451638.530759379,seoul_open_data,Staz Hotel Myeongdong I,10.0,4.0,7945.98
97,모닝스카이호텔,hotel,중구,중구,,서울특별시 중구 퇴계로45길 32-37 (오장동),37.564098,126.997008,active,88.0,97,,2231-6000,2015-01-16,관광호텔업,영업/정상,영업중,199921.397507532,451313.003647556,seoul_open_data,Morning Sky Hotel,0.0,0.0,1129.94
98,트레블로지 명동 남산,hotel,중구,중구,명동권,서울특별시 중구 수표로 16 (충무로3가),37.562569,126.98788,active,174.0,98,,2020-4040,2015-01-22,관광호텔업,영업/정상,영업중,199114.933047561,451143.358208599,seoul_open_data,Travelodge Myeongdong Namsan,13.0,3.0,5163.73
99,하센영인호텔,hotel,중구,중구,,서울특별시 중구 필동로8길 77 (예장동),37.556532,126.990313,active,24.0,99,,02-2275-5019,2015-01-26,소형호텔업,영업/정상,영업중,199329.785160077,450473.272809688,seoul_open_data,HASEN YOUNGINN HOTEL,3.0,2.0,1257.96
100,플로라호텔 남산씨티,hotel,중구,중구,명동권,서울특별시 중구 퇴계로6길 3-6 (회현동1가),37.55782,126.975755,closed,60.0,100,,772-8700,2015-01-29,관광호텔업,폐업,폐업,198043.49823516,450616.474794295,seoul_open_data,FLORAL HOTEL Namsan City,6.0,2.0,2574.87
101,서울 엔 호스텔,hostel,중구,중구,,서울특별시 중구 동호로 343 (오장동),37.564993,126.999195,closed,20.0,101,,070-8830-8160,2015-02-12,호스텔업,폐업,폐업,200114.588886239,451412.287586053,seoul_open_data,SEOUL N HOSTEL,0.0,0.0,401.22
102,오리엔스 호텔 앤 레지던스,hotel,중구,중구,,서울특별시 중구 삼일대로2길 50 (예장동),37.560056,126.98839,active,116.0,102,,2280-8080,2015-02-17,가족호텔업,영업/정상,영업중,199159.933187356,450864.449621814,seoul_open_data,ORIENS HOTEL & RESIDENCES,5.0,4.0,10421.97
103,올스테이인,hostel,중구,중구,명동권,서울특별시 중구 퇴계로 159-8 (충무로2가),37.561739,126.987009,active,19.0,103,,02-536-4851,2015-02-23,호스텔업,영업/정상,영업중,199037.916477276,451051.291993868,seoul_open_data,ALLSTAYINN,0.0,0.0,272.2
104,이비스 스타일 앰배서더 서울 명동,hotel,중구,중구,명동권,서울특별시 중구 삼일대로 302 (충무로2가),37.561682,126.986469,active,180.0,104,,02-6020-8813,2015-03-09,관광호텔업,영업/정상,영업중,198990.202955049,451044.895347229,seoul_open_data,Ibis Styles Ambassador Seoul Myeong-dong,20.0,4.0,7406.53
105,홉인 서울 명동 (HOP INN SEOUL MYEONGDONG),hotel,중구,중구,명동권,서울특별시 중구 충무로 23-1 (충무로3가),37.563331,126.989923,active,97.0,105,,023161780,2015-03-17,관광호텔업,영업/정상,영업중,199295.433977253,451227.87958574,seoul_open_data,HOP INN SEOUL MYEONGDONG,12.0,2.0,3383.64
106,호텔 도마,hotel,중구,중구,명동권,서울특별시 중구 퇴계로 216 (충무로4가),37.561329,126.992923,active,50.0,106,,02-2273-9603,2015-03-25,관광호텔업,영업/정상,영업중,199560.411618029,451005.647814461,seoul_open_data,Hotel Doma,6.0,1.0,2312.22
107,트레블로지 명동 을지로 호텔,hotel,중구,중구,명동권,서울특별시 중구 수표로 61 (을지로2가),37.56661,126.986483,active,224.0,107,,02-6240-5101,2015-04-10,관광호텔업,영업/정상,영업중,198991.480652031,451591.912071216,seoul_open_data,Travelodge Myeongdong Euljiro Hotel,15.0,4.0,9973.62
108,루미아 호텔,hostel,중구,중구,명동권,서울특별시 중구 퇴계로8길 31-9 (회현동1가),37.558022,126.97688,active,34.0,108,,02-755-1300,2015-05-15,호스텔업,영업/정상,영업중,198142.881185174,450638.810478052,seoul_open_data,Lumia Hotel,5.0,1.0,956.48
109,소테츠호텔즈 더 스프라지르 서울 동대문,hotel,중구,중구,,서울특별시 중구 장충단로 226 (광희동2가),37.564713,127.004856,active,215.0,109,,2198-1212,2015-06-24,관광호텔업,영업/정상,영업중,200614.724711748,451381.249500534,seoul_open_data,SOTETSU HOTELS THE SPLAISIR SEOUL DONGDAEMUN,21.0,4.0,12562.85
110,호텔 크레토,hotel,중구,중구,명동권,서울특별시 중구 명동8가길 53 (충무로2가),37.561994,126.985197,active,35.0,110,,02  740 4500,2015-06-26,관광호텔업,영업/정상,영업중,198877.823601669,451079.561839622,seoul_open_data,HOTEL CRETO,9.0,1.0,1377.07
111,24게스트하우스 명동타운점,hostel,중구,중구,,"서울특별시 중구 퇴계로 61, 10층 (남창동)",37.55936,126.976008,active,11.0,111,,0507-1405-5441,2015-07-30,호스텔업,영업/정상,영업중,198065.845616529,450787.39677054,seoul_open_data,24Guesthouse Myeongdong town,10.0,0.0,267.23
112,호텔 더 디자이너스 동대문,hotel,중구,중구,,서울특별시 중구 퇴계로 306 (쌍림동),37.563662,127.002764,active,99.0,112,,2271-3501,2015-08-27,관광호텔업,영업/정상,영업중,200429.929353714,451264.595792065,seoul_open_data,HOTEL THE DESIGNERS DONGDAEMUN,17.0,3.0,4804.48
113,솔라리아 니시테츠 호텔 서울 명동,hotel,중구,중구,명동권,"서울특별시 중구 명동8길 27 (명동2가, 엠 플라자)",37.5625,126.982272,active,312.0,113,,02-773-5553,2015-09-11,관광호텔업,영업/정상,영업중,198619.38819773,451135.740279961,seoul_open_data,Solaria Nishitetsu Hotel Seoul Myeong-dong,0.0,0.0,12388.79
114,24게스트하우스 서울시청점,hostel,중구,중구,,"서울특별시 중구 덕수궁길 7, 3층 (태평로2가, 오천회관빌딩)",37.564706,126.973433,active,11.0,114,,070-7779-3327,2015-09-17,호스텔업,영업/정상,영업중,197838.506308443,451380.770303032,seoul_open_data,24Guesthouse Seoul Cityhall,3.0,0.0,357.77
115,호텔 스카이파크 센트럴 명동점,hotel,중구,중구,명동권,"서울특별시 중구 명동9길 16 (명동1가, 명동 센트럴빌딩 호텔스카이파크)",37.564644,126.982338,active,312.0,115,,752-0022,2015-09-23,관광호텔업,영업/정상,영업중,198625.254251263,451373.686002948,seoul_open_data,HOTEL SKYPARK CENTRAL Myeongdong,16.0,7.0,18585.89
116,에이큐브 호텔,hotel,중구,중구,명동권,"서울특별시 중구 동호로35길 5 (을지로5가, 석광빌딩)",37.566225,126.999147,active,43.0,116,,779-9888,2015-10-06,관광호텔업,영업/정상,영업중,200110.335302043,451549.054429182,seoul_open_data,ACUBE HOTEL,8.0,2.0,2387.18
117,크라운파크 호텔,hotel,중구,중구,명동권,"서울특별시 중구 남대문로7길 19 (소공동, 삼영빌딩)",37.563766,126.977887,closed,204.0,117,,02-750-5900,2015-10-14,관광호텔업,폐업,폐업,198232.003862907,451276.307297241,seoul_open_data,CROWN PARK HOTEL,16.0,2.0,9940.25
118,소테츠호텔즈 더 스프라지르 서울 명동,hotel,중구,중구,명동권,서울특별시 중구 남대문로5길 15 (북창동),37.562053,126.975869,active,428.0,118,,02-2095-4953,2015-11-02,관광호텔업,영업/정상,영업중,198053.638327649,451086.299785656,seoul_open_data,SOTETSU HOTELS THE SPLAISIR SEOUL MYEONG-DONG,17.0,5.0,18598.8
119,2U호스텔,hostel,중구,중구,,"서울특별시 중구 청계천로 184 (주교동, 남강빌딩)",37.568617,126.995299,active,20.0,119,,2271-0827,2015-12-21,호스텔업,영업/정상,영업중,199770.377675687,451814.600448477,seoul_open_data,2U HOSTEL,0.0,0.0,358.02
120,롯데시티호텔명동,hotel,중구,중구,,"서울특별시 중구 삼일대로 362 (장교동, 장교빌딩)",37.566937,126.985186,active,435.0,120,,6112-1000,2016-01-07,관광호텔업,영업/정상,영업중,198876.925292257,451628.15318809,seoul_open_data,Lotte City Hotel Myeongdong,25.0,5.0,25333.62
121,호텔롯데 엘세븐명동,hotel,중구,중구,명동권,서울특별시 중구 퇴계로 137 (충무로2가),37.561365,126.98409,active,251.0,121,,0263101050,2016-01-12,관광호텔업,영업/정상,영업중,198780.018679349,451009.773589561,seoul_open_data,HOTEL LOTTE L7 Myeongdong,19.0,3.0,15016.24
122,라마다 바이 윈덤 서울 동대문 (RAMADA BY WYNDHAM SEOUL DONGDAEMUN),hotel,중구,중구,명동권,"서울특별시 중구 동호로 354 (을지로5가, 극동 스타클래스)",37.565976,126.999722,active,197.0,122,,2276-3500,2016-02-19,관광호텔업,영업/정상,영업중,200161.192418006,451521.415517111,seoul_open_data,RAMADA BY WYNDHAM SEOUL DONGDAEMUN,12.0,4.0,11378.16
123,케이 게스트하우스 동대문프리미엄점,hostel,중구,중구,,"서울특별시 중구 장충단로 213, 3-7층 (광희동2가, 동훈빌딩)",37.563695,127.003859,active,44.0,123,,070-8887-3650,2016-03-22,호스텔업,영업/정상,영업중,200526.656361295,451268.298685031,seoul_open_data,K-GUESTHOUSE DONGDAEMUN PREMIUM,0.0,0.0,993.3
124,96번지,hostel,중구,중구,,"서울특별시 중구 퇴계로 343-1 (광희동2가, 동양빌딩)",37.564817,127.006863,active,15.0,124,,2272-0003,2016-04-05,호스텔업,영업/정상,영업중,200792.068633415,451392.78961175,seoul_open_data,96Bun;z,0.0,0.0,409.41
125,코트야드 메리어트 서울 명동,hotel,중구,중구,명동권,"서울특별시 중구 남대문로 9 (남대문로4가, 남대문호텔)",37.561191,126.974034,active,409.0,125,,,2016-05-02,관광호텔업,영업/정상,영업중,197891.564897442,450990.593465563,seoul_open_data,Courtyard By Marriott Seoul Myeongdong,0.0,0.0,31836.37
126,영빈호텔,hostel,중구,중구,,"서울특별시 중구 퇴계로56길 18 (쌍림동, 영빈대중사우나)",37.563055,127.00265,active,75.0,126,,2277-1141,2016-05-03,호스텔업,영업/정상,영업중,200419.832186515,451197.291107237,seoul_open_data,YOUNGBIN HOTEL,0.0,0.0,3108.69
127,티마크그랜드호텔명동,hotel,중구,중구,명동권,"서울특별시 중구 퇴계로 52 (회현동1가, 인송빌딩)",37.558454,126.975756,closed,576.0,127,,2283-3000,2016-05-17,관광호텔업,폐업,폐업,198043.635511275,450686.849956646,seoul_open_data,Tmark Grand Hotel Myeongdong,0.0,0.0,27174.04
128,아트뷰호텔,hostel,중구,중구,명동권,"서울특별시 중구 수표로6길 33, 2-5층 (충무로3가)",37.562942,126.989356,closed,23.0,128,,2269-2262,2016-06-09,호스텔업,폐업,폐업,199245.264836491,451184.789734499,seoul_open_data,ARTVIEW HOTEL,0.0,0.0,363.57
129,호텔 스카이파크 킹스타운 동대문지점,hotel,중구,중구,명동권,"서울특별시 중구 장충단로13길 20 (을지로6가, 현대시티타워)",37.568643,127.004842,active,408.0,129,,6952-8991,2016-06-10,가족호텔업,영업/정상,영업중,200613.510297669,451817.515366883,seoul_open_data,HOTEL SKYPARK KINGSTOWN DONGDAEMUN,0.0,0.0,25757.87
130,트레블로지 동대문 호텔,hotel,중구,중구,명동권,서울특별시 중구 동호로 359 (을지로5가),37.566413,126.998995,active,242.0,130,,2160-8888,2016-06-24,관광호텔업,영업/정상,영업중,200096.930688028,451569.92963808,seoul_open_data,Travelodge Dongdaemun Seoul,20.0,4.0,8176.29
131,픽셀스테이 명동점,hostel,중구,중구,,서울특별시 중구 퇴계로31길 9 (필동1가),37.561636,126.989283,active,19.0,131,,02-6261-8600,2016-06-28,호스텔업,영업/정상,영업중,199238.837477244,451039.792552027,seoul_open_data,PIXEL STAY MYEONGDONG,0.0,0.0,306.33
132,호텔 28,hotel,중구,중구,명동권,"서울특별시 중구 명동7길 13 (명동1가, 명동증권빌딩)",37.564354,126.98108,active,83.0,132,,774-2828,2016-07-14,관광호텔업,영업/정상,영업중,198514.126767917,451341.512309466,seoul_open_data,HOTEL TWENTY EIGHT,0.0,0.0,4668.84
133,호텔스카이파크명동Ⅱ,hotel,중구,중구,명동권,"서울특별시 중구 명동9길 22 (을지로2가, 호텔스카이파크 2)",37.56492,126.982161,active,131.0,133,,755-0091,2016-10-20,관광호텔업,영업/정상,영업중,198609.654267051,451404.404906149,seoul_open_data,HOTEL SKYPARK MYEONGDONG Ⅱ,15.0,10.0,7111.91
134,에이퍼스트호텔명동,hotel,중구,중구,,서울특별시 중구 다동길 30 (다동),37.567663,126.978213,closed,0.0,134,,,2016-11-10,관광호텔업,폐업,폐업,198260.880732247,451708.909162308,seoul_open_data,A FIRST HOTEL MYEONGDONG,0.0,0.0,6313.74
135,서울호스텔,hostel,중구,중구,,"서울특별시 중구 퇴계로 329, 3~6층 (광희동2가)",37.5645,127.005223,closed,15.0,135,,2264-7888,2016-12-14,호스텔업,폐업,폐업,200647.159357664,451357.621131056,seoul_open_data,SEOUL HOSTEL,0.0,0.0,313.28
136,알로프트서울명동호텔,hotel,중구,중구,명동권,서울특별시 중구 남대문로 56 (명동2가),37.562274,126.979034,active,223.0,136,,2084-1000,2017-01-12,관광호텔업,영업/정상,영업중,198333.33582458,451110.784887572,seoul_open_data,Aloft Seoul Myeongdong Hotel,20.0,5.0,12964.45
137,원투쓰리호스텔,hostel,중구,중구,,"서울특별시 중구 소공로6길 29, 1.2.5층 (남산동2가)",37.558621,126.981881,active,17.0,137,,,2017-02-13,호스텔업,영업/정상,영업중,198584.797257551,450705.210249383,seoul_open_data,123 HOSTEL,2.0,0.0,386.04
138,나인트리 바이 파르나스 서울 명동Ⅱ,hotel,중구,중구,,서울특별시 중구 마른내로 28 (초동),37.564346,126.988034,active,408.0,138,,2179-2661,2017-03-06,관광호텔업,영업/정상,영업중,199128.553284601,451340.595494209,seoul_open_data,NINE TREE BY PARNAS SEOUL MYEONGDONG 2,17.0,5.0,25608.0
139,남산호스텔,hostel,중구,중구,,"서울특별시 중구 퇴계로18길 67 (남산동2가, 기사빌딩)",37.558091,126.98169,active,20.0,139,,778-7800,2017-03-13,호스텔업,영업/정상,영업중,198567.904318412,450646.387187539,seoul_open_data,Namsan Hostel,5.0,1.0,999.0
140,G2 호텔,hotel,중구,중구,,서울특별시 중구 수표로 24 (저동2가),37.563355,126.987579,active,126.0,140,,02-2279-9700,2017-03-20,관광호텔업,영업/정상,영업중,199088.322667,451230.610149193,seoul_open_data,G2 Hotel,14.0,3.0,6601.21
141,오요 5 롯지B (OYO 5 Lodge B),hostel,중구,중구,,서울특별시 중구 퇴계로18길 37 (남산동2가),37.559212,126.98214,active,10.0,141,,,2017-04-21,호스텔업,영업/정상,영업중,198607.670947146,450770.829936259,seoul_open_data,OYO 5 Lodge B,0.0,0.0,166.54
142,오요5 롯지A(OYO 5 Lodge A),hostel,중구,중구,,서울특별시 중구 퇴계로18길 41 (남산동2가),37.5591,126.982077,active,11.0,142,,,2017-04-24,호스텔업,영업/정상,영업중,198602.1192505,450758.364666589,seoul_open_data,OYO 5 Lodge A,0.0,0.0,178.54
143,리플러스 호스텔,hostel,중구,중구,,서울특별시 중구 퇴계로66길 7-1 (광희동2가),37.564002,127.006489,active,8.0,143,,2275-0700,2017-05-04,호스텔업,영업/정상,영업중,200758.994732114,451302.330983146,seoul_open_data,Replus Hostel,0.0,0.0,129.0
144,호텔더디자이너스 디디피,hotel,중구,중구,,"서울특별시 중구 퇴계로 293, 호텔더디자이너스디디피 (쌍림동)",37.56381,127.00121,active,86.0,144,,02-2285-5401,2018-02-01,관광호텔업,영업/정상,영업중,200292.658269708,451281.027011703,seoul_open_data,HOTEL THE DESIGNERS DDP,19.0,3.0,2965.47
145,호텔 토마스 명동,hotel,중구,중구,명동권,"서울특별시 중구 세종대로16길 26, 호텔 토마스 명동 (북창동)",37.563147,126.975473,active,123.0,145,,02-3141-4115,2018-02-14,관광호텔업,영업/정상,영업중,198018.679926506,451207.729791045,seoul_open_data,HOTEL THOMAS MYEONGDONG,0.0,0.0,6027.18
146,호텔룩홈,hostel,중구,중구,,서울특별시 중구 퇴계로20길 32-10 (남산동2가),37.558338,126.982919,active,16.0,146,,02  37897115,2018-05-03,호스텔업,영업/정상,영업중,198676.510359648,450673.848023552,seoul_open_data,HOTEL LOOK HOME,3.0,1.0,484.97
147,홈즈레드 명동,hotel,중구,중구,,서울특별시 중구 퇴계로 176 (남학동),37.560824,126.98841,active,112.0,147,,02-2079-8500,2018-06-26,관광호텔업,영업/정상,영업중,199161.680844774,450949.674631487,seoul_open_data,HOMES RED MYEONGDONG,14.0,2.0,5464.26
148,노보텔 앰배서더 서울 동대문 호텔,hotel,중구,중구,명동권,서울특별시 중구 을지로 238 (을지로6가),37.56627,127.001459,active,331.0,148,,3425-8050,2018-07-02,관광호텔업,영업/정상,영업중,200314.646974736,451554.066925226,seoul_open_data,NOVOTEL AMBASSADOR SEOUL DONGDAEMUN HOTEL,20.0,5.0,24505.0
149,노보텔 앰배서더 서울 동대문 레지던스,hotel,중구,중구,명동권,서울특별시 중구 을지로 238 (을지로6가),37.56627,127.001459,active,192.0,149,,3425-8050,2018-07-02,가족호텔업,영업/정상,영업중,200314.646974736,451554.066925226,seoul_open_data,NOVOTEL AMBASSADOR SEOUL DONGDAEMUN RESIDENCE,20.0,5.0,19996.0
150,(주)조선호텔앤리조트 레스케이프,hotel,중구,중구,명동권,서울특별시 중구 퇴계로 67 (회현동1가),37.559904,126.976601,active,204.0,150,,02  317 4053,2018-07-19,관광호텔업,영업/정상,영업중,198118.296565976,450847.771205029,seoul_open_data,JOSUNHOTELS&RESORTS Inc. L'Escape,0.0,0.0,27476.0
151,ENA 스위트 호텔,hotel,중구,중구,,"서울특별시 중구 세종대로11길 36, E.N.A 스위트 호텔 (서소문동)",,,active,183.0,151,,6020-7000,2018-08-23,관광호텔업,영업/정상,영업중,,,seoul_open_data,ENA SUITE HOTEL,23.0,5.0,14134.9
152,호텔 그레이스리 서울,hotel,중구,중구,명동권,서울특별시 중구 세종대로12길 12 (남대문로4가),37.561597,126.974079,active,336.0,152,,6936-0120,2018-08-23,관광호텔업,영업/정상,영업중,197895.491160507,451035.7030265,seoul_open_data,HOTEL GRACERY SEOUL,6.0,20.0,17908.69
153,더 페이즈,hostel,중구,중구,,서울특별시 중구 장충단로10길 27 (광희동2가),37.56364,127.005667,active,7.0,153,,,2018-08-31,호스텔업,영업/정상,영업중,200686.364658168,451262.161389721,seoul_open_data,The Phase,0.0,0.0,167.94
154,토요코인 서울 동대문 Ⅱ,hotel,중구,중구,,서울특별시 중구 퇴계로 325 (광희동2가),37.56452,127.004978,active,207.0,154,,2272-1045,2018-11-20,관광호텔업,영업/정상,영업중,200625.524648469,451359.906142005,seoul_open_data,Toyoko Inn Seoul Dongdaemun Ⅱ,20.0,1.0,4699.22
155,자자백팩커스,hostel,중구,중구,,서울특별시 중구 퇴계로20길 35 (남산동2가),37.558804,126.983529,active,20.0,155,,0236721976,2019-02-11,호스텔업,영업/정상,영업중,198730.397072346,450725.563076072,seoul_open_data,zaza backpackers,4.0,1.0,607.64
156,케이 스테이 2,hostel,중구,중구,,서울특별시 중구 소공로6길 38 (남산동2가),37.558367,126.982218,closed,20.0,156,,02-587-5776,2019-03-29,호스텔업,폐업,폐업,198614.550199488,450677.047277743,seoul_open_data,K Stay 2nd,4.0,1.0,420.88
157,서울 라이트 인 명동,hostel,중구,중구,명동권,"서울특별시 중구 명동길 55, 11층 (명동1가)",37.564207,126.982461,active,23.0,157,,,2019-07-20,호스텔업,영업/정상,영업중,198636.142124311,451325.229841133,seoul_open_data,Seoulite Inn Myeongdong,15.0,2.0,505.98
158,오요5,hostel,중구,중구,,"서울특별시 중구 퇴계로18길 43, 지하1,1,2층 (남산동2가)",37.558937,126.981953,active,20.0,158,,02-753-5161,2019-07-26,호스텔업,영업/정상,영업중,198591.133748202,450740.353160129,seoul_open_data,OYO5,2.0,1.0,610.66
159,케이스타호텔,hostel,중구,중구,명동권,"서울특별시 중구 을지로 255, 기승빌딩 10층 (을지로6가)",37.566495,127.00371,active,13.0,159,,02-771-7755,2019-09-17,호스텔업,영업/정상,영업중,200513.524528228,451579.099838143,seoul_open_data,K-STAR HOTEL,11.0,4.0,354.66
160,나인트리 바이 파르나스 서울 동대문,hotel,중구,중구,명동권,서울특별시 중구 을지로 224 (을지로5가),37.566613,127.000018,active,219.0,160,,02-6926-4099,2020-01-13,관광호텔업,영업/정상,영업중,200187.271400312,451592.158106036,seoul_open_data,NINE TREE BY PARNAS SEOUL DONGDAEMUN,20.0,3.0,8871.73
161,호텔 미드시티 명동,hotel,중구,중구,,서울특별시 중구 다동길 30 (다동),37.567663,126.978213,active,140.0,161,,02-3788-5888,2020-08-28,관광호텔업,영업/정상,영업중,198260.880732247,451708.909162308,seoul_open_data,HOTEL MIDCITY MYEONGDONG,9.0,1.0,6313.74
162,남산스토리 나인,hostel,중구,중구,명동권,서울특별시 중구 퇴계로8길 93 (회현동1가),37.555753,126.977856,active,9.0,162,,0507-1331-2598,2020-09-10,호스텔업,영업/정상,영업중,198229.100381804,450386.97375941,seoul_open_data,NAMSANSTORY NINE,0.0,1.0,535.32
163,(주)조선호텔앤리조트 포포인츠 조선 명동,hotel,중구,중구,명동권,"서울특별시 중구 삼일대로10길 36, 포포인츠바이쉐라톤서울명동 (저동2가)",37.565581,126.986538,active,375.0,163,,02-6466-6000,2020-10-28,관광호텔업,영업/정상,영업중,198996.366632826,451477.704107715,seoul_open_data,Josun Hotels & Resorts Inc. Fourpoints Josun Myungdong,26.0,3.0,20569.5
164,유에이치 스위트 더 서울,hostel,중구,중구,,"서울특별시 중구 만리재로 211, 지상2층 ∼ 지상10층 (만리동1가)",37.556306,126.965283,active,17.0,164,,07049430548,2021-02-10,호스텔업,영업/정상,영업중,197118.125654965,450448.652284254,seoul_open_data,UH SUITE THE SEOUL,0.0,0.0,627.15
165,올리브 호스텔,hostel,중구,중구,,서울특별시 중구 소공로6길 38 (남산동2가),37.558367,126.982218,active,20.0,165,,,2021-06-16,호스텔업,영업/정상,영업중,198614.550199488,450677.047277743,seoul_open_data,Olive Hostel,4.0,1.0,420.88
166,헨나호텔서울명동,hotel,중구,중구,명동권,서울특별시 중구 명동8가길 59 (충무로2가),37.562024,126.985428,active,100.0,166,,070-8057-1131,2021-07-06,관광호텔업,영업/정상,영업중,198898.282009528,451082.839302118,seoul_open_data,Henn na Hotel Seoul Myeongdong,8.0,1.0,3171.31
167,머큐어 앰배서더 서울 동대문(MERCURE AMBASSADOR SEOUL DONGDAEMUN),hotel,중구,중구,명동권,서울특별시 중구 동호로 369 (을지로5가),37.567412,126.998976,active,297.0,167,,02-2251-7463,2021-10-01,관광호텔업,영업/정상,영업중,200095.261182808,451680.793663218,seoul_open_data,MERCURE AMBASSADOR SEOUL DONGDAEMUN,20.0,4.0,13820.05
168,스탠포드호텔 명동,hotel,중구,중구,명동권,서울특별시 중구 남대문로 84 (남대문로2가),37.564649,126.979807,active,254.0,168,,02-6260-2000,2022-01-20,관광호텔업,영업/정상,영업중,198401.701305913,451374.312212737,seoul_open_data,STANFORD HOTEL MYEONGDONG,18.0,3.0,12099.72
169,제이오너 호스텔,hostel,중구,중구,명동권,"서울특별시 중구 소공로6나길 8, 1-2층 (회현동2가)",37.558054,126.980738,active,10.0,169,,,2022-03-29,호스텔업,영업/정상,영업중,198483.811641009,450642.314853297,seoul_open_data,J-HONOR HOSTEL,1.0,0.0,212.22
170,G3호텔,hotel,중구,중구,명동권,서울특별시 중구 충무로 7 (필동1가),37.561826,126.990019,active,197.0,170,,02-777-7905,2022-11-11,관광호텔업,영업/정상,영업중,199303.889590262,451060.843010573,seoul_open_data,G3 Hotel,19.0,4.0,9838.0
171,르메르디앙 서울 명동,hotel,중구,중구,명동권,서울특별시 중구 명동8나길 38 (충무로1가),37.561718,126.979824,active,200.0,171,,,2022-11-25,관광호텔업,영업/정상,영업중,198403.083197305,451049.012425837,seoul_open_data,LE MERIDIEN SEOUL MYEONGDONG,4.0,5.0,20543.53
172,목시 서울 명동,hotel,중구,중구,명동권,서울특별시 중구 명동8나길 38 (충무로1가),37.561718,126.979824,active,205.0,172,,02-2184-7000,2022-11-25,관광호텔업,영업/정상,영업중,198403.083197305,451049.012425837,seoul_open_data,MOXY SEOUL  MYEONGDONG,4.0,5.0,11212.43
173,글로카로카호스텔,hostel,중구,중구,,"서울특별시 중구 세종대로 135, 19~20층 (태평로1가)",37.568302,126.973756,active,45.0,173,,02-3445-3887,2023-05-30,호스텔업,영업/정상,영업중,197867.156641113,451779.880897566,seoul_open_data,GLOCALOCA HOSTEL,19.0,0.0,2280.0
174,호텔베르,hotel,중구,중구,명동권,"서울특별시 중구 명동7가길 22, 3~11층 (을지로2가)",37.56457,126.980255,active,40.0,174,,3786-8999,2023-10-27,의료관광호텔업,영업/정상,영업중,198441.269874845,451365.561736866,seoul_open_data,HOTEL VERT,11.0,1.0,1551.69
175,보코 언 아이에이치지 호텔,hotel,중구,중구,명동권,서울특별시 중구 퇴계로 52 (회현동1가),37.558454,126.975756,active,576.0,175,,02-6923-6700,2024-06-27,관광호텔업,영업/정상,영업중,198043.635511275,450686.849956646,seoul_open_data,VOCO AN IHG HOTEL,19.0,2.0,26667.09
176,유스테이호스텔(U-STAY HOSTEL),hostel,중구,중구,명동권,"서울특별시 중구 명동10길 23, 4층 (명동2가)",37.56286,126.982761,active,24.0,176,,,2024-08-05,호스텔업,영업/정상,영업중,198662.601529757,451175.710664862,seoul_open_data,,4.0,0.0,397.68
177,케이팝 서울타워 호스텔,hostel,중구,중구,,서울특별시 중구 퇴계로2길 20 (남창동),37.556787,126.974274,active,20.0,177,,,2024-09-27,호스텔업,영업/정상,영업중,197912.569432128,450501.826339044,seoul_open_data,,4.0,1.0,488.3
178,오요6(OYO6),hostel,중구,중구,,"서울특별시 중구 퇴계로18길 33 (1층,5층) (남산동2가)",37.559305,126.982317,active,18.0,178,,,2024-11-04,호스텔업,영업/정상,영업중,198623.369754854,450781.146728928,seoul_open_data,OYO6,0.0,0.0,260.36
179,블루닷 포쉬텔,hostel,중구,중구,명동권,"서울특별시 중구 명동10길 19-27, 디자이너스빌딩 (명동2가)",37.563165,126.982944,active,51.0,179,,,2024-12-12,호스텔업,영업/정상,영업중,198678.774286832,451209.550729181,seoul_open_data,BlueDot Poshtel,0.0,0.0,1554.41
180,호스텔아라,hostel,중구,중구,명동권,"서울특별시 중구 명동9길 21, 지상3층,4층 (명동1가)",37.564762,126.981646,active,20.0,180,,,2024-12-19,호스텔업,영업/정상,영업중,198564.1795109,451386.874682463,seoul_open_data,HOSTEL ARA,0.0,0.0,441.54
181,센트럴,hostel,중구,중구,,"서울특별시 중구 퇴계로18길 33, 지하1층,지상4층 (남산동2가)",37.559305,126.982317,active,10.0,181,,,2024-12-19,호스텔업,영업/정상,영업중,198623.369754854,450781.146728928,seoul_open_data,CENTRAL,4.0,1.0,255.46
182,다두하우스,hostel,중구,중구,,서울특별시 중구 퇴계로18길 49 (남산동2가),37.558771,126.981905,active,8.0,182,,,2024-12-24,호스텔업,영업/정상,영업중,198586.947483956,450721.931166203,seoul_open_data,DADU HOUSE,0.0,0.0,274.68
183,올스테이 호스텔,hostel,중구,중구,명동권,"서울특별시 중구 남대문로5길 23, 세창빌딩 2층 (북창동)",37.562415,126.976032,active,11.0,183,,,2025-01-31,호스텔업,영업/정상,영업중,198068.131653285,451126.465954538,seoul_open_data,ALL STAY,2.0,0.0,175.21
184,보로인 명동,hostel,중구,중구,,"서울특별시 중구 퇴계로20나길 28, 지상1층~지상2층 (남산동2가)",37.557899,126.982224,active,6.0,184,,,2025-04-30,호스텔업,영업/정상,영업중,198615.1245708,450625.07344537,seoul_open_data,BORO HOSTEL IN MYEONG-DONG,1.0,0.0,262.08
185,코스모하버 인 명동2,hostel,중구,중구,명동권,"서울특별시 중구 을지로 177, 일신빌딩 지상5층 (을지로4가)",37.566896,126.994653,active,3.0,185,,,2025-06-04,호스텔업,영업/정상,영업중,199713.338571725,451623.558170741,seoul_open_data,COSMOHARBOR,0.0,0.0,221.42
186,먼슬리브 을지로 호텔 스테이,hostel,중구,중구,명동권,"서울특별시 중구 을지로 177, 일신빌딩 내 지상2층~지상3층 (을지로4가)",37.566896,126.994653,active,8.0,186,,,2025-06-26,호스텔업,영업/정상,영업중,199713.338571725,451623.558170741,seoul_open_data,MONTHLIV Euljiro Hotel Stay,0.0,0.0,442.84
187,모먼트맨션,hostel,중구,중구,,"서울특별시 중구 퇴계로87길 24-7, 지상1층~지상4층 (황학동)",37.566697,127.018479,active,8.0,187,,,2025-07-16,호스텔업,영업/정상,영업중,201818.29808365,451601.672490175,seoul_open_data,Moment Mansion HOSTEL,0.0,0.0,188.5
188,라임스테이 명동 호스텔,hostel,중구,중구,,"서울특별시 중구 퇴계로 210, 지상4층 (필동2가)",37.561228,126.992159,active,7.0,188,,,2025-08-07,호스텔업,영업/정상,영업중,199492.981109179,450994.468193414,seoul_open_data,,5.0,1.0,142.08
189,호스텔 고울,hostel,중구,중구,명동권,"서울특별시 중구 삼일대로8길 13, 지상7층 (충무로2가)",37.562813,126.986858,active,1.0,189,,,2025-08-07,호스텔업,영업/정상,영업중,199024.562771375,451170.488726466,seoul_open_data,,7.0,1.0,41.76
190,먼슬리브 을지로 광장시장 호텔 스테이[Monthliv Euljiro Gwangjang Market Hotel Stay],hostel,중구,중구,명동권,"서울특별시 중구 을지로27길 40, 지상3층~지상5층 (주교동)",37.568659,126.996286,active,7.0,190,,070-8655-2327,2025-08-07,호스텔업,영업/정상,영업중,199857.605071367,451819.223280697,seoul_open_data,,5.0,1.0,313.8
191,THE VILLA 23,hostel,중구,중구,,"서울특별시 중구 서소문로 133, 지상7층,지상8층,지상10층,지상11층 (서소문동)",37.563877,126.972657,active,4.0,191,,,2025-09-19,호스텔업,영업/정상,영업중,197769.961816205,451288.74158068,seoul_open_data,,0.0,0.0,
192,FRGE (에프알지이),hostel,중구,중구,,"서울특별시 중구 난계로17길 58-14, 지하1층~지상5층 (황학동)",37.570131,127.017932,active,5.0,192,,,2025-09-19,호스텔업,영업/정상,영업중,201769.918012603,451982.737675836,seoul_open_data,,0.0,0.0,
193,아르보 스테이,hostel,중구,중구,명동권,"서울특별시 중구 을지로 144, 지상2층 (을지로3가)",37.566193,126.991074,active,5.0,193,,,2025-09-26,호스텔업,영업/정상,영업중,199397.147619054,451545.552347045,seoul_open_data,Arvo Stay,3.0,0.0,142.9
194,트래비스타 호스텔,hostel,중구,중구,명동권,"서울특별시 중구 삼일대로8길 12, 지하1층,지상6층~지상10층 (충무로2가)",37.562614,126.986813,active,9.0,194,,,2025-09-29,호스텔업,영업/정상,영업중,199020.607295698,451148.336104531,seoul_open_data,,0.0,0.0,
195,HISTAY HOSTEL,hostel,중구,중구,명동권,"서울특별시 중구 남대문로 66-1, 지상2층~지상3층 (명동2가)",37.563023,126.979305,active,10.0,195,,,2025-09-29,호스텔업,영업/정상,영업중,198357.308994559,451193.911492637,seoul_open_data,,0.0,0.0,
196,로밍 타이거,hostel,중구,중구,,"서울특별시 중구 퇴계로76길 28, 지상3층~지상5층 (무학동)",37.564065,127.01236,active,6.0,196,,,2025-10-15,호스텔업,영업/정상,영업중,201277.706085215,451309.375841257,seoul_open_data,,3.0,1.0,225.0
197,호텔 명동역,hostel,중구,중구,,"서울특별시 중구 퇴계로18길 13, 지상1층~지상2층 (남산동2가)",37.560206,126.982757,active,33.0,197,,02-775-3216,2025-10-20,호스텔업,영업/정상,영업중,198662.218896247,450881.131680443,seoul_open_data,,0.0,0.0,
198,하이 동대문 호스텔,hostel,중구,중구,명동권,"서울특별시 중구 을지로43길 30, 미진빌딩 지상4층 (을지로6가)",37.567403,127.004564,active,14.0,198,,,2025-10-23,호스텔업,영업/정상,영업중,200588.959909937,451679.884050444,seoul_open_data,,5.0,1.0,242.65
199,하이 서울 호스텔,hostel,중구,중구,명동권,서울특별시 중구 명동8나길 45 (충무로1가),37.561072,126.979509,active,12.0,199,,,2025-10-31,호스텔업,영업/정상,영업중,198375.232374546,450977.367032275,seoul_open_data,,4.0,1.0,180.87
200,하이 서울 호스텔 명동 명동 웨스트,hostel,중구,중구,명동권,"서울특별시 중구 명동8가길 61, 금성빌딩 (충무로2가)",37.562018,126.985573,active,9.0,200,,,2025-11-03,호스텔업,영업/정상,영업중,198911.0286441,451082.214388761,seoul_open_data,,7.0,1.0,159.4
201,어반 스위트 스테이 (Urban Suite Stay),hostel,중구,중구,,"서울특별시 중구 퇴계로20나길 10, 1층 (남산동2가)",37.558744,126.982636,active,6.0,201,,,2025-11-11,호스텔업,영업/정상,영업중,198651.46452077,450718.885269002,seoul_open_data,,0.0,0.0,221.16
202,MOREN SEOUL MYEONGDONG,hostel,중구,중구,명동권,"서울특별시 중구 수표로2길 7, 2~3층 (충무로3가)",37.562203,126.988023,active,11.0,202,,,2025-11-11,호스텔업,영업/정상,영업중,199127.53452918,451102.686191354,seoul_open_data,,0.0,0.0,210.18
203,이랑 스테이,hostel,중구,중구,,"서울특별시 중구 마른내로 50, 지상3층 301호 (인현동1가)",37.564237,126.990357,active,2.0,203,,,2025-11-17,호스텔업,영업/정상,영업중,199333.801387448,451328.479487075,seoul_open_data,,5.0,1.0,69.52
204,하이메이트 동대문,hostel,중구,중구,명동권,"서울특별시 중구 을지로 280-2, FIN TOWER 9~10층 (을지로7가)",37.565371,127.006164,active,13.0,204,,,2025-11-26,호스텔업,영업/정상,영업중,200730.296204033,451454.338715818,seoul_open_data,,11.0,2.0,297.15
205,한 스위트 서울,hostel,중구,중구,명동권,서울특별시 중구 남대문로1길 26-3 (북창동),37.562356,126.974734,active,6.0,205,,,2025-12-02,호스텔업,영업/정상,영업중,197953.410988627,451119.871529384,seoul_open_data,,0.0,0.0,540.62
206,라서울 스테이,hostel,중구,중구,,"서울특별시 중구 청파로 441, 지상4층 (중림동)",37.558834,126.96604,active,3.0,206,,,2025-12-09,호스텔업,영업/정상,영업중,197185.178805798,450729.302106846,seoul_open_data,La Seoul Stay,0.0,0.0,100.17
207,주식회사 율,hostel,중구,중구,,"서울특별시 중구 장충단로 214, 최정형외과의원 지하1층~지상4층 (광희동2가)",37.56377,127.004388,active,10.0,207,,,2025-12-09,호스텔업,영업/정상,영업중,200573.420855721,451276.590664728,seoul_open_data,"YUL Co., Ltd.",0.0,0.0,424.73
208,하이 스테이 을지로 호스텔,hostel,중구,중구,,"서울특별시 중구 마른내로2길 6, 지상3층~지상5층 (초동)",37.564149,126.989489,active,15.0,208,,,2025-12-15,호스텔업,영업/정상,영업중,199257.113944113,451318.655196377,seoul_open_data,,0.0,0.0,261.07
209,유어모먼트,hostel,중구,중구,,서울특별시 중구 난계로17길 3 (황학동),37.569227,127.020217,active,4.0,209,,,2025-12-19,호스텔업,영업/정상,영업중,201971.734332621,451882.53103038,seoul_open_data,,0.0,0.0,104.48
210,안온 스테이,hostel,중구,중구,명동권,"서울특별시 중구 동호로 350, 한일상회 지상2층 (을지로5가)",37.565567,126.999809,active,3.0,210,,,2025-12-26,호스텔업,영업/정상,영업중,200168.83910333,451476.043044703,seoul_open_data,,0.0,0.0,123.54
211,더큐브 호텔,hostel,중구,중구,,서울특별시 중구 퇴계로20길 31 (남산동2가),37.558842,126.983309,active,5.0,211,,,2026-01-05,호스텔업,영업/정상,영업중,198711.004408276,450729.70372038,seoul_open_data,,0.0,0.0,
212,SINDANG GRAND JOY 호스텔,hostel,중구,중구,,서울특별시 중구 퇴계로83길 10-22 (황학동),37.566079,127.016499,active,2.0,212,,,2026-01-05,호스텔업,영업/정상,영업중,201643.411062205,451532.973367955,seoul_open_data,,0.0,0.0,
213,무드온 명동,hostel,중구,중구,명동권,"서울특별시 중구 명동8길 8-11, 3층 (명동2가)",37.563179,126.981074,active,2.0,213,,,2026-01-07,호스텔업,영업/정상,영업중,198513.571993372,451211.103380431,seoul_open_data,,0.0,0.0,
214,스테이모드,hostel,중구,중구,명동권,서울특별시 중구 수표로 10 (충무로3가),37.562168,126.987656,active,8.0,214,,,2026-01-09,호스텔업,영업/정상,영업중,199095.113474444,451098.796818087,seoul_open_data,,4.0,0.0,
215,미리네 스테이,hostel,중구,중구,명동권,"서울특별시 중구 을지로38길 30, 지상2층~지상3층 (을지로5가)",37.565386,127.000305,active,2.0,215,,,2026-01-23,호스텔업,영업/정상,영업중,200212.624773672,451455.935226392,seoul_open_data,,4.0,0.0,88.62
216,스테이 쉼,hostel,중구,중구,명동권,"서울특별시 중구 퇴계로63길 22, 지상2층~지상5층 (을지로7가)",37.56538,127.005943,active,5.0,216,,,2026-01-23,호스텔업,영업/정상,영업중,200710.77679721,451455.325218208,seoul_open_data,,5.0,1.0,179.12
217,해치 스테이,hostel,중구,중구,명동권,"서울특별시 중구 남대문로7길 33, 7층 (소공동)",37.563789,126.977126,active,11.0,217,,,2026-02-02,호스텔업,영업/정상,영업중,198164.81474774,451278.901392417,seoul_open_data,,7.0,1.0,293.65
218,스테이 한가온 명동,hostel,중구,중구,명동권,서울특별시 중구 세종대로2가길 40 (남대문로5가),37.558187,126.972843,active,3.0,218,,,2026-02-06,호스텔업,영업/정상,영업중,197786.233103721,450657.203237286,seoul_open_data,,0.0,0.0,111.73
219,엘림 호스텔,hostel,중구,중구,명동권,"서울특별시 중구 을지로35길 51-6, 지상2층~지상5층 (주교동)",37.569041,126.998349,active,12.0,219,,,2026-02-12,호스텔업,영업/정상,영업중,200039.886363362,451861.645694086,seoul_open_data,,0.0,0.0,
220,로스터블록,hostel,중구,중구,명동권,"서울특별시 중구 을지로16길 2-1, 지상3층 (을지로3가)",37.56614,126.990586,active,1.0,220,,,2026-02-12,호스텔업,영업/정상,영업중,199353.972647661,451539.691052825,seoul_open_data,,0.0,0.0,
221,MOK HOSTEL,hostel,중구,중구,명동권,"서울특별시 중구 명동4길 35, 5,6층 (명동2가)",37.562093,126.981224,active,18.0,221,,,2026-02-23,호스텔업,영업/정상,영업중,198526.809718956,451090.607143509,seoul_open_data,,0.0,0.0,
222,포레스트 스테이 을지로,hostel,중구,중구,명동권,"서울특별시 중구 을지로33길 6, 지상3층 (주교동)",37.567152,126.997419,active,9.0,222,,,2026-02-24,호스텔업,영업/정상,영업중,199957.659044118,451651.967315334,seoul_open_data,,4.0,1.0,186.88
223,JEJARI STAY,hostel,중구,중구,,"서울특별시 중구 소공로6길 35, JEJARI STAY (남산동2가)",37.558642,126.982154,active,20.0,223,,,2026-02-24,호스텔업,영업/정상,영업중,198608.927223501,450707.580510567,seoul_open_data,,0.0,0.0,
224,제이빌스,hostel,중구,중구,명동권,"서울특별시 중구 마른내로4가길 41, 금사과빌딩 지상2층 (충무로4가)",37.562627,126.991615,active,3.0,224,,,2026-02-25,호스텔업,영업/정상,영업중,199444.847152847,451149.7429042,seoul_open_data,,6.0,1.0,99.98
225,케이그랜드호텔 DDP,hostel,중구,중구,,"서울특별시 중구 마장로 11, 신한빌딩 3층 (신당동)",37.568467,127.008521,active,13.0,225,,070-7780-3650,2026-03-04,호스텔업,영업/정상,영업중,200938.52813687,451798.00308625,seoul_open_data,,3.0,0.0,294.39
226,zip 1972 hostel,hostel,중구,중구,,"서울특별시 중구 창경궁로 64, 브라더빌딩 지상2층 (주교동)",37.568107,126.995373,active,8.0,226,,,2026-03-05,호스텔업,영업/정상,영업중,199776.8998987,451757.911311507,seoul_open_data,,2.0,1.0,178.84
227,머룸스테이,hostel,중구,중구,명동권,"서울특별시 중구 퇴계로51길 17-1, 지상2층 (충무로5가)",37.563944,126.998744,active,1.0,227,,,2026-03-06,호스텔업,영업/정상,영업중,200074.730448901,451295.8738879,seoul_open_data,,2.0,0.0,42.98
228,크라운파크 호텔 서울 명동,hotel,중구,중구,명동권,"서울특별시 중구 남대문로7길 19, 삼영빌딩 (소공동)",37.563766,126.977887,active,0.0,228,,,2026-03-18,관광호텔업,영업/정상,영업중,198232.003862907,451276.307297241,seoul_open_data,THE CROWN PARK HOTEL SEOUL MYEONGDONG,16.0,2.0,10257.56
229,정동스테이25(JEONGDONG STAY 25),hostel,중구,중구,,서울특별시 중구 서소문로 131 (서소문동),37.563811,126.97249,active,15.0,229,,,2026-03-18,호스텔업,영업/정상,영업중,197755.195576878,451281.493188414,seoul_open_data,,0.0,0.0,
230,호스텔 소우재,hostel,중구,중구,,"서울특별시 중구 퇴계로87길 32, 2층 (황학동)",37.566939,127.018248,active,2.0,230,,,2026-03-19,호스텔업,영업/정상,영업중,201797.872285138,451628.469874125,seoul_open_data,,0.0,0.0,
231,STAY ON,hostel,중구,중구,,"서울특별시 중구 장충단로 224, 지상3~지상4층 (광희동2가)",37.564562,127.004651,active,2.0,231,,,2026-03-26,호스텔업,영업/정상,영업중,200596.599009783,451364.467609826,seoul_open_data,,0.0,0.0,79.34
232,라하 부티크 디디피,hostel,중구,중구,명동권,"서울특별시 중구 을지로 280-2, FIN TOWER 지상2층~지상3층 (을지로7가)",37.565371,127.006164,active,12.0,232,,,2026-03-26,호스텔업,영업/정상,영업중,200730.296204033,451454.338715818,seoul_open_data,,0.0,0.0,327.76
233,호텔 블리스 I,hotel,중구,중구,명동권,서울특별시 중구 퇴계로16길 38 (회현동3가),37.55956,126.981006,active,0.0,233,,02-752-2300,2026-03-27,관광호텔업,영업/정상,영업중,198507.482446178,450809.495455808,seoul_open_data,HOTEL BLISS I,6.0,2.0,1047.78
234,호텔블리스Ⅱ,hostel,중구,중구,명동권,"서울특별시 중구 퇴계로16길 37, 블리스호텔Ⅱ (회현동3가)",37.559388,126.981068,active,0.0,234,,02-752-2300,2026-03-31,호스텔업,영업/정상,영업중,198513.004471552,450790.358157938,seoul_open_data,HOTEL BLISSⅡ,5.0,2.0,467.58
235,아랑재,unknown,중구,중구,,"서울특별시 중구 마른내로12길 7-1, 지상2층~지상3층 (오장동)",37.564094,126.997702,active,,235,,,2026-04-07,관광숙박업,영업/정상,영업중,199982.67401815,451312.579937352,seoul_open_data,,,,
236,호스텔 모어 댄 스테이,unknown,중구,중구,,서울특별시 중구 퇴계로83길 34-5 (황학동),37.567366,127.015861,active,,236,,,2026-04-10,관광숙박업,영업/정상,영업중,201586.944711846,451675.882155756,seoul_open_data,,,,
237,서울YMCA관광호텔,hotel,종로구,종로구,종로권,"서울특별시 종로구 종로 69 (종로2가, YMCA)",37.570606,126.982399,closed,30.0,237,,02-734-6884,1967-04-03,관광호텔업,휴업,휴업,198630.79627088,452035.412646906,seoul_open_data,SEOUL YMCA TOURIST HOTEL,8.0,1.0,892.86
238,동대문관광호텔,hotel,종로구,종로구,종로권,"서울특별시 종로구 종로 286 (창신동, 이스턴호텔)",37.570909,127.007476,active,52.0,238,,02-741-7811,1968-05-01,관광호텔업,영업/정상,영업중,200846.171043058,452069.005122414,seoul_open_data,DONGDAEMUN TOURIST HOTEL,7.0,2.0,3798.73
239,센추럴,hotel,종로구,종로구,종로권,"서울특별시 종로구 청계천로 137 (장사동, 센트럴관광호텔)",37.568799,126.990006,active,78.0,239,,02-6365-6500,1969-05-01,관광호텔업,영업/정상,영업중,199302.818541341,451834.817165156,seoul_open_data,,9.0,1.0,6309.22
240,VATICA HOTEL(바티카 호텔),hotel,종로구,종로구,종로권,"서울특별시 종로구 청계천로 341 (창신동, 삼호호텔)",37.570128,127.012646,active,50.0,240,,02-741-7080,1970-05-01,관광호텔업,영업/정상,영업중,201302.883783666,451982.388503793,seoul_open_data,VATICA HOTEL,7.0,1.0,3292.0
241,서울,unknown,종로구,종로구,종로권,서울특별시 종로구 청진동 92번지,,,closed,0.0,241,,02-735-9001,1974-04-01,관광숙박업,폐업,폐업,,,seoul_open_data,,8.0,2.0,5358.27
242,종로크라운,hotel,종로구,종로구,종로권,"서울특별시 종로구 삼일대로30길 9 (낙원동, 종로 크라운 호텔)",37.574066,126.985298,active,80.0,242,,02-3676-8000,1980-04-01,관광호텔업,영업/정상,영업중,198886.944446027,452419.42955676,seoul_open_data,Jongno Crown,8.0,2.0,4285.76
243,동화킴스관광호텔,hotel,종로구,종로구,종로권,"서울특별시 종로구 평창문화로 136 (평창동, 킴스관광호텔)",37.609449,126.972227,active,51.0,243,,02-379-0520,1990-04-02,관광호텔업,영업/정상,영업중,197733.39181877,456346.84737021,seoul_open_data,,4.0,2.0,3170.38
244,(주)올림피아스위트,unknown,종로구,종로구,종로권,서울특별시 종로구 평창동 108-2번지,37.610635,126.974669,closed,0.0,244,,02-2287-6070,2003-07-11,관광숙박업,폐업,폐업,197949.002174181,456478.436790904,seoul_open_data,,0.0,0.0,
245,비원관광호텔,unknown,종로구,종로구,종로권,서울특별시 종로구 율곡로 176  (원남동),37.575626,126.995361,closed,0.0,245,,02-763-3233,2003-12-10,관광숙박업,폐업,폐업,199775.901529928,452592.4422331,seoul_open_data,,13.0,2.0,
246,오라카이 인사동 스위츠,hotel,종로구,종로구,종로권,서울특별시 종로구 인사동4길 18 (낙원동),37.573007,126.984444,active,213.0,246,,02-6262-8282,2007-09-04,가족호텔업,영업/정상,영업중,198811.497417806,452301.907780717,seoul_open_data,Orakai Insadong Suites,24.0,6.0,45510.23
247,호텔베뉴지,hotel,종로구,종로구,종로권,서울특별시 종로구 청계천로 117 (관수동),37.568735,126.98795,active,163.0,247,,02-2223-6500,2012-04-04,관광호텔업,영업/정상,영업중,199121.144814384,451827.704774757,seoul_open_data,Hotel Venueg,12.0,1.0,6629.01
248,(주)아워홈 아벤트리호텔 종로점,hotel,종로구,종로구,종로권,서울특별시 종로구 우정국로 46 (견지동),37.573131,126.980577,closed,155.0,248,,736-1234,2012-09-28,관광호텔업,폐업,폐업,198469.85451949,452315.746209246,seoul_open_data,AVENTREE HOTEL JONGNO,11.0,1.0,6086.66
249,아미드 호텔 서울,hotel,종로구,종로구,종로권,서울특별시 종로구 인사동5길 38 (관훈동),37.572595,126.981309,active,250.0,249,,02-731-1000,2012-11-09,관광호텔업,영업/정상,영업중,198534.549198735,452256.166993396,seoul_open_data,Amid Hotel Seoul,14.0,4.0,15679.42
250,Stay in GAM,hostel,종로구,종로구,종로권,서울특별시 종로구 율곡로10길 12 (와룡동),37.576887,126.987932,closed,15.0,250,,,2012-11-27,호스텔업,폐업,폐업,199119.675907849,452732.545380767,seoul_open_data,Stay in GAM,5.0,1.0,423.76
251,ICON,hostel,종로구,종로구,종로권,서울특별시 종로구 삼일대로32가길 20 (익선동),37.574849,126.986027,active,28.0,251,,,2013-01-25,호스텔업,영업/정상,영업중,198951.339009067,452506.320099222,seoul_open_data,ICON,9.0,1.0,860.92
252,호텔 다다-인사,hostel,종로구,종로구,종로권,서울특별시 종로구 삼일대로32가길 33 (익선동),37.574649,126.98665,active,36.0,252,,744-4647,2013-02-13,호스텔업,영업/정상,영업중,199006.378605147,452484.083300535,seoul_open_data,Hotel DADA-Insa,9.0,1.0,956.0
253,Hostel Tommy 호스텔 토미,hostel,종로구,종로구,종로권,서울특별시 종로구 돈화문로 66 (와룡동),37.574424,126.988314,active,21.0,253,,02-744-6844,2013-04-08,호스텔업,영업/정상,영업중,199153.425066203,452459.177175342,seoul_open_data,Hostel Tommy,4.0,0.0,234.71
254,노블관광호텔,hotel,종로구,종로구,종로권,서울특별시 종로구 율곡로6길 13-3 (운니동),37.576684,126.986768,active,34.0,254,,"742-4025, 4030",2013-05-03,관광호텔업,영업/정상,영업중,199016.856080944,452710.006795455,seoul_open_data,Noble Tourist Hotel,5.0,1.0,1228.72
255,Hostel STAY NOW,hostel,종로구,종로구,종로권,서울특별시 종로구 삼일대로32가길 38 (익선동),37.574549,126.98683,closed,20.0,255,,070-8958-0505,2013-05-12,호스텔업,폐업,폐업,199022.300982384,452472.976006603,seoul_open_data,Hostel STAY NOW,9.0,1.0,547.0
256,바운드 호스텔,hostel,종로구,종로구,종로권,서울특별시 종로구 돈화문로 85 (와룡동),37.576134,126.987423,active,30.0,256,,,2013-05-23,호스텔업,영업/정상,영업중,199074.670635062,452648.894407231,seoul_open_data,BOUND HOSTEL,5.0,1.0,1481.0
257,호텔 이비스앰배서더 인사동,hotel,종로구,종로구,종로권,"서울특별시 종로구 삼일대로30길 31 (익선동, 호텔 이비스앰배서더 인사동)",37.574438,126.986328,active,363.0,257,,02-6730-1134,2013-09-25,관광호텔업,영업/정상,영업중,198977.911015975,452460.663046516,seoul_open_data,ibis Ambassador Seoul Insadong,10.0,2.0,14346.3
258,(주) 동승 JW메리어트 동대문 스퀘어 서울,hotel,종로구,종로구,종로권,서울특별시 종로구 청계천로 279 (종로6가),37.570394,127.006022,active,170.0,258,,02-2276-3000,2013-12-30,관광호텔업,영업/정상,영업중,200717.7490316,452011.865092338,seoul_open_data,JW Marriott Dongdaemun Square Seoul(DONGSUNG Co.Ltd),10.0,6.0,41730.0
259,라마다 서울 종로,hotel,종로구,종로구,종로권,서울특별시 종로구 창경궁로 106 (인의동),37.571885,126.995234,closed,139.0,259,,02-2174-6500,2014-01-09,관광호텔업,폐업,폐업,199764.69151091,452177.255224359,seoul_open_data,Ramada Seoul Jongno,12.0,5.0,9968.21
260,미오하우스,hostel,종로구,종로구,종로권,"서울특별시 종로구 청계천로 229, 7층 (종로5가)",37.570113,127.000156,closed,10.0,260,,"070-8146-1410,1400",2014-01-22,호스텔업,폐업,폐업,200199.528812856,451980.604036907,seoul_open_data,mmmio house,7.0,0.0,400.25
261,호스텔코리아 10호점,hostel,종로구,종로구,종로권,"서울특별시 종로구 종로 382, 2층 (숭인동)",37.573965,127.017001,closed,9.0,261,,,2014-02-03,호스텔업,폐업,폐업,201687.573879734,452408.346754198,seoul_open_data,KIM HAK NOH,0.0,0.0,235.14
262,24게스트하우스 인사동,hostel,종로구,종로구,종로권,서울특별시 종로구 삼일대로17길 8 (관철동),37.569273,126.984282,closed,25.0,262,,02-734-0024,2014-02-14,호스텔업,폐업,폐업,198797.140043517,451887.51214766,seoul_open_data,24guesthouse Insadong,5.0,2.0,446.49
263,24guesthouse동대문마켓점,hostel,종로구,종로구,종로권,서울특별시 종로구 종로46길 22 (창신동),37.570651,127.007328,active,10.0,263,,02-742-6200,2014-05-08,호스텔업,영업/정상,영업중,200833.121381281,452040.323909642,seoul_open_data,"24GUESTHOUSE
DONGDAEMUN MARKET",5.0,1.0,151.96
264,호스텔 클로이,hostel,종로구,종로구,종로권,"서울특별시 종로구 종로16길 32-4, 동산빌딩 3,4,5층 (관철동)",37.568724,126.985724,active,19.0,264,,02-2268-8011,2014-06-02,호스텔업,영업/정상,영업중,198924.493311656,451826.54074884,seoul_open_data,HOSTEL CLOY,0.0,0.0,292.8
265,메이플레이스 호텔 서울 동대문,hotel,종로구,종로구,종로권,서울특별시 종로구 율곡로 179 (원남동),37.576115,126.995846,active,105.0,265,,02-742-8080,2014-07-21,관광호텔업,영업/정상,영업중,199818.769709814,452646.808088738,seoul_open_data,MAYPLACE HOTEL,13.0,2.0,4942.71
266,고궁호텔,hotel,종로구,종로구,종로권,서울특별시 종로구 율곡로 164 (원남동),37.575753,126.993853,closed,58.0,266,,02-741-3831,2014-11-05,관광호텔업,폐업,폐업,199642.716240024,452606.614384676,seoul_open_data,Gogoong Hotel,7.0,2.0,2704.0
267,언플러그 안국,hostel,종로구,종로구,종로권,서울특별시 종로구 율곡로10길 11 (권농동),37.577025,126.98835,active,30.0,267,,02-744-1271,2015-01-26,호스텔업,영업/정상,영업중,199156.623916493,452747.807991092,seoul_open_data,Unplugged Security Bureau,5.0,1.0,1353.48
268,아름호스텔,hostel,종로구,종로구,종로권,"서울특별시 종로구 율곡로4길 11-3, 1층 (견지동)",37.575026,126.979275,closed,6.0,268,,02-733-5600,2015-04-20,호스텔업,폐업,폐업,198354.893145135,452526.073191496,seoul_open_data,AROOM HOSTEL,1.0,0.0,79.0
269,포시즌스 호텔 서울,hotel,종로구,종로구,종로권,서울특별시 종로구 새문안로 97 (당주동),37.570766,126.972531,active,317.0,269,,02-6388-5000,2015-09-30,관광호텔업,영업/정상,영업중,197758.993026787,452053.420838552,seoul_open_data,Fourseasons Hotel Seoul,25.0,7.0,67264.89
270,24 게스트하우스 종로3가,hostel,종로구,종로구,종로권,"서울특별시 종로구 율곡로10길 105, 5층 (봉익동, 디아망 쥬얼리)",37.572935,126.98934,closed,16.0,270,,02-3675-7885,2015-10-22,호스텔업,폐업,폐업,199243.960959498,452293.899531079,seoul_open_data,24guesthouse Jongno3ga Station,5.0,0.0,247.13
271,신라스테이 광화문,hotel,종로구,종로구,종로권,"서울특별시 종로구 삼봉로 71 (수송동, G타워)",37.572651,126.978202,active,338.0,271,,"02-6060-9000, 9182",2015-12-21,관광호텔업,영업/정상,영업중,198260.063190604,452262.484573124,seoul_open_data,Shilla Stay Gwanghwamun,18.0,5.0,17595.08
272,베니키아 프리미어 호텔 동대문,hotel,종로구,종로구,종로권,"서울특별시 종로구 난계로29길 55 (숭인동, 베니키아호텔동대문)",37.573636,127.017287,closed,237.0,272,,02  22318723,2015-12-29,관광호텔업,폐업,폐업,201712.855210767,452371.734482943,seoul_open_data,Benikea Premier Hotel Dongdaemun,18.0,3.0,9928.87
273,동대문 서울달빛,hostel,종로구,종로구,종로권,"서울특별시 종로구 종로54길 9-10, 2,3층 (창신동)",37.571912,127.011647,active,19.0,273,,02  745 1986,2016-01-27,호스텔업,영업/정상,영업중,201214.620228217,452180.406567952,seoul_open_data,Seouldalbit,3.0,0.0,385.19
274,베스트웨스턴 종로(인사동),hotel,종로구,종로구,종로권,서울특별시 종로구 돈화문로11길 33 (낙원동),37.572389,126.986654,active,42.0,274,,02-747-5000,2016-02-02,관광호텔업,영업/정상,영업중,199006.673946375,452233.299150748,seoul_open_data,Makers Hotel,10.0,2.0,1603.84
275,아이비씨호텔,hotel,종로구,종로구,종로권,서울특별시 종로구 난계로 241 (숭인동),37.573257,127.019963,active,55.0,275,,02-2250-3000,2016-03-09,관광호텔업,영업/정상,영업중,201949.270716491,452329.735166543,seoul_open_data,IBC HOTEL,5.0,2.0,2996.75
276,호스텔 하루,hostel,종로구,종로구,종로권,"서울특별시 종로구 청계천로 61, 10~12층 (관철동)",37.568978,126.981431,active,14.0,276,,02-732-1101,2016-03-15,호스텔업,영업/정상,영업중,198545.22241783,451854.820889784,seoul_open_data,Hostel Haru,0.0,0.0,588.1
277,호텔 아트리움,hotel,종로구,종로구,종로권,"서울특별시 종로구 창경궁로 106, 호텔아트리움 (인의동)",37.571885,126.995234,active,139.0,277,,02-767-9800,2016-06-01,관광호텔업,영업/정상,영업중,199764.69151091,452177.255224359,seoul_open_data,Hotel Atrium,12.0,5.0,9968.21
278,호스텔 데이,hostel,종로구,종로구,종로권,"서울특별시 종로구 창경궁로 224, 2,3층 (명륜4가, 서울시티빌딩)",37.582045,126.995034,active,13.0,278,,02-742-2948,2016-06-14,호스텔업,영업/정상,영업중,199747.024385135,453304.910568114,seoul_open_data,Hostel Day,0.0,0.0,348.6
279,서울앤호텔 동대문,hostel,종로구,종로구,종로권,서울특별시 종로구 종로66가길 21 (숭인동),37.573329,127.017942,active,101.0,279,,02-2231-2757,2017-06-08,호스텔업,영업/정상,영업중,201770.687981914,452337.690748925,seoul_open_data,"Seoul N Hotels Co. , Ltd",14.0,2.0,2507.0
280,루미아호텔,hotel,종로구,종로구,종로권,서울특별시 종로구 난계로29길 19-11 (숭인동),37.573846,127.019354,active,61.0,280,,2235-1301,2018-02-14,관광호텔업,영업/정상,영업중,201895.419403144,452395.129773561,seoul_open_data,BUSINESS & TOURIST HOTEL LUMIA,14.0,1.0,1997.89
281,도미인 익스프레스 서울 인사동,hotel,종로구,종로구,종로권,서울특별시 종로구 인사동길 20-9 (인사동),37.57237,126.984289,active,127.0,281,,02-738-6100,2018-06-11,관광호텔업,영업/정상,영업중,198797.815432789,452231.193562946,seoul_open_data,DORMY INN EXPRESS SEOUL INSADONG,13.0,3.0,4543.43
282,JONGRO ALICE,hostel,종로구,종로구,종로권,서울특별시 종로구 삼일대로32길 46 (익선동),37.575468,126.986617,closed,8.0,282,,,2018-06-18,호스텔업,폐업,폐업,199003.460155451,452574.992954032,seoul_open_data,JONGRO ALICE,5.0,0.0,278.43
283,호텔 썬비,hotel,종로구,종로구,종로권,"서울특별시 종로구 인사동7길 26, 호텔 썬비 (관훈동)",37.573053,126.981901,active,42.0,283,,02-730-3455,2018-07-05,관광호텔업,영업/정상,영업중,198586.86523867,452307.07147577,seoul_open_data,Hotel Sunbee,9.0,1.0,2070.85
284,나인트리 바이 파르나스 서울 인사동,hotel,종로구,종로구,종로권,서울특별시 종로구 인사동길 49 (관훈동),37.574552,126.980905,active,301.0,284,,02-6917-3099,2019-10-02,관광호텔업,영업/정상,영업중,198498.918632911,452473.403750001,seoul_open_data,Nine Tree By Parnas Seoul Insadong,13.0,4.0,22134.77
285,글루호텔,hotel,종로구,종로구,종로권,"서울특별시 종로구 율곡로 228, glue hotel (이화동)",37.575798,127.00107,active,54.0,285,,02-2024-8400,2019-10-18,관광호텔업,영업/정상,영업중,200280.218939597,452611.575936538,seoul_open_data,glue hotel,13.0,2.0,1843.53
286,목시 서울 인사동 호텔,hotel,종로구,종로구,종로권,서울특별시 종로구 돈화문로11길 37 (낙원동),37.572297,126.986453,active,140.0,286,,02-758-1700,2019-10-29,관광호텔업,영업/정상,영업중,198988.983646221,452223.097221066,seoul_open_data,MOXY SEOUL INSADONG HOTEL,16.0,3.0,5971.04
287,호텔 DM,hotel,종로구,종로구,종로권,"서울특별시 종로구 난계로29길 73, 호텔디엠 (숭인동)",37.573348,127.0165,active,100.0,287,,02-2236-3144,2020-10-23,관광호텔업,영업/정상,영업중,201643.277882724,452339.843125652,seoul_open_data,Hotel DM,9.0,2.0,2994.06
288,오라카이 대학로 호텔,hotel,종로구,종로구,종로권,"서울특별시 종로구 율곡로 180, 오라카이 대학로 호텔 (원남동)",37.575725,126.995876,active,232.0,288,,02-6353-7700,2020-11-16,관광호텔업,영업/정상,영업중,199821.363678095,452603.475535058,seoul_open_data,Orakai Daehakro Hotel,14.0,5.0,19412.5
289,케이디호스텔 7,hostel,종로구,종로구,종로권,"서울특별시 종로구 종로62길 17, 7층 (숭인동)",37.5732,127.016574,active,9.0,289,,,2021-01-14,호스텔업,영업/정상,영업중,201649.840328936,452323.368074798,seoul_open_data,KD Hostel 7,1.0,0.0,259.27
290,KD-ONE8,hostel,종로구,종로구,종로권,"서울특별시 종로구 종로62길 17, 8층 (숭인동)",37.5732,127.016574,active,9.0,290,,,2021-01-14,호스텔업,영업/정상,영업중,201649.840328936,452323.368074798,seoul_open_data,KD-ONE8,1.0,0.0,259.27
291,KD-ONE9,hostel,종로구,종로구,종로권,"서울특별시 종로구 종로62길 17, 9층 (숭인동)",37.5732,127.016574,active,9.0,291,,,2021-01-14,호스텔업,영업/정상,영업중,201649.840328936,452323.368074798,seoul_open_data,KD-ONE9,1.0,0.0,259.27
292,킹스가든,hostel,종로구,종로구,종로권,"서울특별시 종로구 삼일대로32가길 38, 킹스가든 2~7층 (익선동)",37.574549,126.98683,active,17.0,292,,,2021-04-15,호스텔업,영업/정상,영업중,199022.300982384,452472.976006603,seoul_open_data,King's Garden,0.0,0.0,365.04
293,종로하루,hostel,종로구,종로구,종로권,"서울특별시 종로구 창경궁로21가길 5-3, 종로하루 (원남동)",37.574976,126.993668,active,2.0,293,,,2023-02-15,호스텔업,영업/정상,영업중,199626.352160596,452520.392539419,seoul_open_data,JONGNO HARU,2.0,0.0,42.98
294,케이디 호스텔,hostel,종로구,종로구,종로권,"서울특별시 종로구 종로62길 17, 케이디오피스텔 4~5층 (숭인동)",37.5732,127.016574,active,19.0,294,,,2023-12-20,호스텔업,영업/정상,영업중,201649.840328936,452323.368074798,seoul_open_data,KD Hostel,9.0,2.0,518.08
295,더프리마호텔 종로,hotel,종로구,종로구,종로권,"서울특별시 종로구 우정국로 46, 천마빌딩 (견지동)",37.573131,126.980577,active,155.0,295,,02-6006-9114,2024-02-21,관광호텔업,영업/정상,영업중,198469.85451949,452315.746209246,seoul_open_data,THE PRIMA HOTEL JONGNO,11.0,1.0,6074.4
296,이온호텔,hostel,종로구,종로구,종로권,"서울특별시 종로구 종로 313-6, 금강빌딩 (창신동)",37.572503,127.009868,active,42.0,296,,02-745-1600,2024-05-23,호스텔업,영업/정상,영업중,201057.431070167,452245.944639053,seoul_open_data,ION HOTEL,7.0,1.0,962.63
297,이스트 아뜰리에,hostel,종로구,종로구,종로권,서울특별시 종로구 창경궁로 123-20 (인의동),37.573681,126.993782,active,6.0,297,,,2024-09-02,호스텔업,영업/정상,영업중,199636.410863155,452376.667974027,seoul_open_data,,3.0,1.0,367.96
298,U-STAY HOSTEL,hostel,종로구,종로구,종로권,"서울특별시 종로구 지봉로 24-12, 5층 (숭인동)",37.572519,127.013354,active,6.0,298,,,2024-09-13,호스텔업,영업/정상,영업중,201365.396263672,452247.733898196,seoul_open_data,U-STAY HOSTEL,0.0,0.0,130.12
299,오리지날 백패커스,hostel,종로구,종로구,종로권,"서울특별시 종로구 종로 313-3, 3, 4층 (창신동)",37.572434,127.009648,active,10.0,299,,,2024-11-20,호스텔업,영업/정상,영업중,201038.054251039,452238.219197074,seoul_open_data,Original Backpackers,0.0,0.0,276.42
300,케이스테이,hostel,종로구,종로구,종로권,"서울특별시 종로구 종로46길 1, 4, 5층 (창신동)",37.5715,127.008082,active,27.0,300,,02-766-4436,2024-12-04,호스텔업,영업/정상,영업중,200899.709096426,452134.545425205,seoul_open_data,K-STAY,0.0,0.0,498.24
301,브루클린,hostel,종로구,종로구,종로권,"서울특별시 종로구 창경궁로16길 73-4, 브루클린 호텔 (연건동)",37.575194,126.998731,active,32.0,301,,,2025-02-25,호스텔업,영업/정상,영업중,200073.606445663,452544.53788058,seoul_open_data,BROOKLYN,10.0,2.0,1330.79
302,익선 아뜨리에,hostel,종로구,종로구,종로권,서울특별시 종로구 돈화문로9가길 19 (돈의동),37.572257,126.988054,active,10.0,302,,,2025-03-06,호스텔업,영업/정상,영업중,199130.409496824,452218.631188846,seoul_open_data,IKSUN ATELIER,4.0,0.0,251.42
303,EIGHT REST HOSTEL,hostel,종로구,종로구,종로권,"서울특별시 종로구 종로 233-1, 메디칼라움빌딩 4, 5층 (종로5가)",37.571307,127.000838,active,20.0,303,,,2025-03-12,호스텔업,영업/정상,영업중,200259.754525539,452113.150872578,seoul_open_data,EIGHT REST HOSTEL,6.0,0.0,361.18
304,수레지던스,hostel,종로구,종로구,종로권,"서울특별시 종로구 삼일대로17길 46, 신양빌딩 4,5층 (관철동)",37.5693,126.982051,active,17.0,304,,,2025-03-20,호스텔업,영업/정상,영업중,198600.044394976,451890.546463187,seoul_open_data,SOO RESIDENCE,5.0,1.0,212.96
305,스튜디오 밀루 종로광화문점,hostel,종로구,종로구,종로권,"서울특별시 종로구 종로5길 32-5, 삼선빌딩 4층 (청진동)",37.571908,126.977952,active,12.0,305,,,2025-04-07,호스텔업,영업/정상,영업중,198237.929525915,452179.998288835,seoul_open_data,STUDIO MILOU JONGNO GWANGHWAMUN,6.0,1.0,228.23
306,루나하우스,hostel,종로구,종로구,종로권,"서울특별시 종로구 보문로1길 8, 루밍하우스코리아 1층 (숭인동)",37.576286,127.019816,active,5.0,306,,,2025-05-19,호스텔업,영업/정상,영업중,201936.189136207,452665.980629598,seoul_open_data,Luna House,3.0,1.0,83.36
307,D-STAY HOSTEL,hostel,종로구,종로구,종로권,"서울특별시 종로구 종로46길 20, 4, 5층 (창신동)",37.570733,127.00742,active,15.0,307,,,2025-05-27,호스텔업,영업/정상,영업중,200841.176868527,452049.502624754,seoul_open_data,D-STAY HOSTEL,5.0,1.0,247.94
308,더 메이 호텔,hotel,종로구,종로구,종로권,"서울특별시 종로구 수표로26길 10, 호텔 더메이 7~10층 (돈의동)",37.571983,126.986688,active,25.0,308,,,2025-05-27,소형호텔업,영업/정상,영업중,199009.716569888,452188.241668341,seoul_open_data,HOTEL THE MAY,0.0,0.0,847.4
309,엠제이호텔,hostel,종로구,종로구,종로권,"서울특별시 종로구 삼일대로32가길 15, 이레빌딩 1~7층 (익선동)",37.575024,126.985967,active,29.0,309,,,2025-06-12,호스텔업,영업/정상,영업중,198946.090371308,452525.716079111,seoul_open_data,MJ HOTEL,7.0,1.0,1041.27
310,브릭 스테이 (BRIC STAY),hostel,종로구,종로구,종로권,서울특별시 종로구 종로65길 12-22 (숭인동),37.57523,127.017612,active,0.0,310,,,2025-08-14,호스텔업,영업/정상,영업중,201741.476646868,452548.707959757,seoul_open_data,Brick Stay,3.0,1.0,258.29
311,HELLO HOSTEL,hostel,종로구,종로구,종로권,"서울특별시 종로구 돈화문로 5-5, 한남빌딩 4,6층 (관수동)",37.56895,126.989086,active,0.0,311,,,2025-09-24,호스텔업,영업/정상,영업중,199221.509430179,451851.540972503,seoul_open_data,HELLO HOSTEL,6.0,0.0,287.6
312,하나데이즈 종로광화문(Hana Days Jongno-Gwanghwamun,hostel,종로구,종로구,종로권,"서울특별시 종로구 종로5길 32-5, 삼선빌딩 5층 (청진동)",37.571908,126.977952,active,0.0,312,,,2025-09-24,호스텔업,영업/정상,영업중,198237.929525915,452179.998288835,seoul_open_data,Hana Days Jongno-Gwanghwamun,6.0,1.0,228.23
313,클래식 아파트먼트 익선,hostel,종로구,종로구,종로권,"서울특별시 종로구 돈화문로 92, 고려빌딩 2~5층 (와룡동)",37.576645,126.987646,active,0.0,313,,,2025-09-25,호스텔업,영업/정상,영업중,199094.426974085,452705.663555768,seoul_open_data,Classic apartment ikseon,5.0,1.0,391.79
314,하우스 오손 종묘점,hostel,종로구,종로구,종로권,"서울특별시 종로구 대학로2길 13, 2~3층 (효제동)",37.571651,126.999933,active,0.0,314,,,2025-09-25,호스텔업,영업/정상,영업중,200179.814528611,452151.358602176,seoul_open_data,House oson jongmyo,5.0,1.0,179.82
315,헤이븐 스테이 종로,hostel,종로구,종로구,종로권,"서울특별시 종로구 종로5길 32-5, 삼선빌딩 6층 (청진동)",37.571908,126.977952,active,0.0,315,,,2025-09-26,호스텔업,영업/정상,영업중,198237.929525915,452179.998288835,seoul_open_data,Haven Stay Jongno,6.0,1.0,228.23
316,HI STAY JONGNO,hostel,종로구,종로구,종로권,"서울특별시 종로구 삼일대로17길 17, 3층 (관철동)",37.569062,126.983612,active,0.0,316,,,2025-10-14,호스텔업,영업/정상,영업중,198737.963708985,451864.041221302,seoul_open_data,HI STAY JONGNO,5.0,1.0,196.03
317,THE EXTAY LOUNGE,hostel,종로구,종로구,종로권,"서울특별시 종로구 수표로 91, 다비치타워 4~7층 (관수동)",37.569404,126.986404,active,24.0,317,,,2025-10-20,호스텔업,영업/정상,영업중,198984.604875284,451902.022816125,seoul_open_data,THE EXTAY LOUNGE,8.0,2.0,913.64
318,먼슬리브 종로 종각역 호텔 스테이,hostel,종로구,종로구,종로권,"서울특별시 종로구 삼일대로15길 17, 금옥빌딩 3,8층 (관철동)",37.568694,126.983672,active,11.0,318,,,2025-10-20,호스텔업,영업/정상,영업중,198743.189527622,451823.235571773,seoul_open_data,MONTHLIV Jongno Jonggak Station Hotel Stay,9.0,2.0,315.42
319,스테이 마루 종로,hostel,종로구,종로구,종로권,"서울특별시 종로구 종로12길 14, BK종로 6층 (관철동)",37.569447,126.982695,active,0.0,319,,,2025-11-07,호스텔업,영업/정상,영업중,198656.933623902,451906.850293023,seoul_open_data,Stay Maru Jongno,7.0,1.0,233.59
320,스테이 종로 온당,hostel,종로구,종로구,종로권,서울특별시 종로구 율곡로 110-16 (권농동),37.576915,126.988365,active,0.0,320,,,2025-11-13,호스텔업,영업/정상,영업중,199157.903207703,452735.594736647,seoul_open_data,Stay Jongno Ondang,2.0,1.0,140.38
321,편안정,hostel,종로구,종로구,종로권,"서울특별시 종로구 종로43길 15, 4층 (종로6가)",37.572009,127.00484,active,0.0,321,,,2025-11-27,호스텔업,영업/정상,영업중,200613.281663753,452191.016680922,seoul_open_data,Pyeon an jeong,5.0,1.0,106.43
322,소락방 주식회사,hostel,종로구,종로구,종로권,"서울특별시 종로구 수표로 132-1, 5~6층 (낙원동)",37.572848,126.985592,active,0.0,322,,,2025-11-27,호스텔업,영업/정상,영업중,198912.882064705,452284.28899958,seoul_open_data,Sorakbang Corporation,6.0,0.0,87.6
323,스테이누아 종로,hostel,종로구,종로구,종로권,"서울특별시 종로구 대학로1길 34-11, 영지빌딩 4층 (연지동)",37.572329,126.997558,active,0.0,323,,,2025-11-27,호스텔업,영업/정상,영업중,199969.999699615,452226.549323254,seoul_open_data,Staynua jongno,5.0,1.0,76.86
324,1996 종로인,hostel,종로구,종로구,종로권,"서울특별시 종로구 종로14길 19, 예지빌딩 3층 (관철동)",37.569075,126.984166,active,0.0,324,,,2025-11-27,호스텔업,영업/정상,영업중,198786.901723323,451865.494241718,seoul_open_data,1996 jongro inn,2.0,7.0,280.51
325,동대문인순,hostel,종로구,종로구,종로권,"서울특별시 종로구 종로 298, 5층 (창신동)",37.571527,127.008117,active,0.0,325,,,2025-11-27,호스텔업,영업/정상,영업중,200902.807232242,452137.584346747,seoul_open_data,Dongdaemun Inn soon,5.0,1.0,46.48
326,스테이 뷔,hostel,종로구,종로구,종로권,"서울특별시 종로구 종로12길 14, BK종로 5층 (관철동)",37.569447,126.982695,active,0.0,326,,,2025-12-15,호스텔업,영업/정상,영업중,198656.933623902,451906.850293023,seoul_open_data,Hwirim,7.0,1.0,233.59
327,247 HOSTEL SEOUL,hostel,종로구,종로구,종로권,"서울특별시 종로구 종로54길 32, 3~4층 (창신동)",37.570924,127.011046,active,0.0,327,,,2025-12-30,호스텔업,영업/정상,영업중,201161.5695658,452070.731182291,seoul_open_data,247 HOSTEL SEOUL,4.0,1.0,261.36
328,찰나 호스텔,hostel,종로구,종로구,종로권,"서울특별시 종로구 종로8길 15, 3층 (관철동)",37.569396,126.981227,active,0.0,328,,,2025-12-30,호스텔업,영업/정상,영업중,198527.201079961,451901.155059874,seoul_open_data,CHALLA HOSTEL,6.0,1.0,104.0
329,스테이울림,hostel,종로구,종로구,종로권,"서울특별시 종로구 종로 62-1, 4층 (종로2가)",37.569935,126.981478,active,0.0,329,,,2025-12-30,호스텔업,영업/정상,영업중,198549.377397696,451960.972726138,seoul_open_data,Stay woolim,6.0,2.0,103.54
330,편안정 종로5가점,hostel,종로구,종로구,종로권,"서울특별시 종로구 종로 248-1, 5층 (종로5가)",37.570855,127.002445,active,0.0,330,,,2026-01-06,호스텔업,영업/정상,영업중,200401.722939568,452062.956830205,seoul_open_data,Pyeon an jeong Jongno 5-ga,6.0,1.0,90.55
331,스테이 도손 동대문점,hostel,종로구,종로구,종로권,"서울특별시 종로구 종로 248-1, 2층 (종로5가)",37.570855,127.002445,active,0.0,331,,,2026-01-06,호스텔업,영업/정상,영업중,200401.722939568,452062.956830205,seoul_open_data,Stay doson Dongdaemun,6.0,1.0,90.55
332,하프레스트 호스텔,hostel,종로구,종로구,종로권,"서울특별시 종로구 종로17길 48, 1~5층 (낙원동)",37.57229,126.98552,active,21.0,332,,,2026-01-12,호스텔업,영업/정상,영업중,198906.525582464,452222.26053706,seoul_open_data,Halfrest HOSTEL,5.0,2.0,554.17
333,엔조이스테이 호스텔,hostel,종로구,종로구,종로권,"서울특별시 종로구 난계로29길 65-14, 3~5층 (숭인동)",37.573043,127.017021,active,27.0,333,,,2026-01-12,호스텔업,영업/정상,영업중,201689.360291466,452306.010081257,seoul_open_data,N joystay HOSTEL,5.0,0.0,596.25
334,동대문 스테이가든,hostel,종로구,종로구,종로권,"서울특별시 종로구 종로54길 9-9, 2층 (창신동)",37.572218,127.011395,active,0.0,334,,,2026-01-20,호스텔업,영업/정상,영업중,201192.319848224,452214.352544411,seoul_open_data,Dongdaemun Stay Garden,2.0,0.0,226.08
335,고유리(Goyu;re),hostel,종로구,종로구,종로권,"서울특별시 종로구 종로36나길 10-1, 4층 (종로5가)",37.570052,127.00162,active,0.0,335,,,2026-01-20,호스텔업,영업/정상,영업중,200328.85058794,451973.845648666,seoul_open_data,Goyu;re,4.0,1.0,64.0
336,온코리아 스테이,hostel,종로구,종로구,종로권,"서울특별시 종로구 율곡로 230-13, 온코리아 스테이 (충신동)",37.575405,127.001265,active,0.0,336,,,2026-01-29,호스텔업,영업/정상,영업중,200297.411363988,452567.967939751,seoul_open_data,ON KOREA STAY,5.0,1.0,298.91
337,연경당,hostel,종로구,종로구,종로권,"서울특별시 종로구 율곡로22길 12-14, 4층 (충신동)",37.574787,127.001851,active,0.0,337,,,2026-02-02,호스텔업,영업/정상,영업중,200349.182282318,452499.369331122,seoul_open_data,Yeongyeongdang,8.0,1.0,78.24
338,스테이 봄,hostel,종로구,종로구,종로권,"서울특별시 종로구 율곡로22길 12-14, 7층 (충신동)",37.574787,127.001851,active,0.0,338,,,2026-02-02,호스텔업,영업/정상,영업중,200349.182282318,452499.369331122,seoul_open_data,"STAY, spring",8.0,1.0,78.24
339,소담온 종로,hostel,종로구,종로구,종로권,"서울특별시 종로구 돈화문로9길 6, 4층 (돈의동)",37.572027,126.988435,active,0.0,339,,,2026-02-27,호스텔업,영업/정상,영업중,199164.028176924,452193.124898933,seoul_open_data,Sodamon Jongro,5.0,1.0,91.44
340,더도아스테이,hostel,종로구,종로구,종로권,"서울특별시 종로구 대학로 42-13, 2층 201호 (효제동)",37.574591,126.999654,active,0.0,340,,,2026-02-27,호스텔업,영업/정상,영업중,200155.102293406,452477.571800737,seoul_open_data,THE DO A STAY,10.0,1.0,95.32
341,오아시스 트레블러스 종로,hostel,종로구,종로구,종로권,"서울특별시 종로구 삼일대로 393-1, 4, 5층 (관철동)",37.569773,126.984536,active,0.0,341,,,2026-03-03,호스텔업,영업/정상,영업중,198819.574269631,451942.979071945,seoul_open_data,Oasis Travelers Jongro,6.0,1.0,183.48
342,더온재,hostel,종로구,종로구,종로권,"서울특별시 종로구 숭인동길 1-3, 2, 3층 (숭인동)",37.575034,127.018289,active,0.0,342,,,2026-03-05,호스텔업,영업/정상,영업중,201801.300137307,452526.951324552,seoul_open_data,The Onjae,0.0,0.0,152.3
343,VERANDA11,hostel,종로구,종로구,종로권,"서울특별시 종로구 숭인동길 1-3, 4층 (숭인동)",37.575034,127.018289,active,0.0,343,,,2026-03-05,호스텔업,영업/정상,영업중,201801.300137307,452526.951324552,seoul_open_data,VERANDA11,0.0,0.0,51.28
344,아울스테이,hostel,종로구,종로구,종로권,"서울특별시 종로구 종로12길 16, 대성빌딩 6층 (관철동)",37.569335,126.982697,active,0.0,344,,,2026-03-10,호스텔업,영업/정상,영업중,198657.113035591,451894.389633456,seoul_open_data,OWL STAY,0.0,0.0,80.1
345,호스텔 메가 동대문역,hostel,종로구,종로구,종로권,"서울특별시 종로구 종로46길 22, 임진빌딩 2층 (창신동)",37.570651,127.007328,active,0.0,345,,,2026-03-10,호스텔업,영업/정상,영업중,200833.121381281,452040.323909642,seoul_open_data,Hostel Mega Dongdaemun Station,0.0,0.0,151.96
346,포레스트 스테이 종로,hostel,종로구,종로구,종로권,"서울특별시 종로구 율곡로10길 105, 디아망 쥬얼리 4층 (봉익동)",37.572935,126.98934,active,0.0,346,,,2026-03-10,호스텔업,영업/정상,영업중,199243.960959498,452293.899531079,seoul_open_data,Forest Stay Jongno,0.0,0.0,284.79
347,MOMENTO HOSTEL,hostel,종로구,종로구,종로권,"서울특별시 종로구 삼일대로17길 52, 삼보빌딩 4, 5층 (관철동)",37.569307,126.981697,active,0.0,347,,,2026-03-10,호스텔업,영업/정상,영업중,198568.77792237,451891.299622979,seoul_open_data,MOMENTO HOSTEL,0.0,0.0,435.3
348,SOUNDS INN GWANGHWAMUN,hostel,종로구,종로구,종로권,"서울특별시 종로구 새문안로9길 25, 3층 (당주동)",37.571346,126.972647,active,0.0,348,,,2026-03-19,호스텔업,영업/정상,영업중,197769.253723172,452117.73988487,seoul_open_data,SOUNDS INN GWANGHWAMUN,5.0,0.0,161.95
349,진가,hostel,종로구,종로구,종로권,"서울특별시 종로구 종로 198, 3,4,5층 (종로4가)",37.57063,126.996691,active,0.0,349,,,2026-03-19,호스텔업,영업/정상,영업중,199893.409361955,452037.93796291,seoul_open_data,Jinga,5.0,0.0,150.94
350,스테이 안 익선,unknown,종로구,종로구,종로권,"서울특별시 종로구 돈화문로 56-1, 2, 3층 (묘동)",37.573537,126.988582,active,,350,,,2026-03-19,관광숙박업,영업/정상,영업중,199177.064296757,452360.626823417,seoul_open_data,,,,
351,킴스텔코리아 종로점,hostel,종로구,종로구,종로권,"서울특별시 종로구 돈화문로 56-1, 4, 5층 (묘동)",37.573537,126.988582,active,0.0,351,,,2026-03-19,호스텔업,영업/정상,영업중,199177.064296757,452360.626823417,seoul_open_data,Kimstel Korea (Jongno Branch),6.0,0.0,291.24
352,스테이 묘미 종로,unknown,종로구,종로구,종로권,"서울특별시 종로구 종로12길 23, 포인트23 10, 11층 (관철동)",37.568954,126.983026,active,,352,,,2026-04-08,관광숙박업,영업/정상,영업중,198686.19085244,451852.05285101,seoul_open_data,,,,
353,NANA HOSTEL jonggak,unknown,종로구,종로구,종로권,"서울특별시 종로구 종로8길 13, 3, 4층 (관철동)",37.569473,126.981211,active,,353,,,2026-04-08,관광숙박업,영업/정상,영업중,198525.851210964,451909.692402004,seoul_open_data,,,,
354,벨린스테이,unknown,종로구,종로구,종로권,"서울특별시 종로구 우정국로2길 31, 4층 (관철동)",37.569675,126.982006,active,,354,,,2026-04-08,관광숙박업,영업/정상,영업중,198596.089308222,451932.131774449,seoul_open_data,,,,
355,호텔 인스피룸 종로,unknown,종로구,종로구,종로권,"서울특별시 종로구 난계로29길 33-5, 삼광빌딩 (숭인동)",37.573859,127.018651,active,,355,,,2026-04-08,관광숙박업,영업/정상,영업중,201833.329247293,452396.590127958,seoul_open_data,,,,
356,안한스테이 동묘,unknown,종로구,종로구,종로권,"서울특별시 종로구 종로57길 7, 안한스테이 동묘 (숭인동)",37.573636,127.013934,active,,356,,,2026-04-08,관광숙박업,영업/정상,영업중,201416.64430679,452371.758065602,seoul_open_data,,,,
357,하우스다 종각,unknown,종로구,종로구,종로권,"서울특별시 종로구 삼일대로 391, 5층 (관철동)",37.569512,126.984501,active,,357,,,2026-04-13,관광숙박업,영업/정상,영업중,198816.493844918,451913.950189702,seoul_open_data,,,,
358,나애집,unknown,종로구,종로구,종로권,"서울특별시 종로구 삼일대로 391, 6층 (관철동)",37.569512,126.984501,active,,358,,,2026-04-13,관광숙박업,영업/정상,영업중,198816.493844918,451913.950189702,seoul_open_data,,,,
359,스위스그랜드호텔서울,hotel,서대문구,서대문구,,"서울특별시 서대문구 연희로 353, 스위스그랜드호텔 (홍은동)",37.589181,126.932364,active,503.0,359,,02-2287-8310,1987-12-14,관광호텔업,영업/정상,영업중,194211.997213753,454098.970268002,seoul_open_data,,12.0,3.0,116496.85
360,호텔미라보,unknown,서대문구,서대문구,,서울특별시 서대문구 대현동 104-36번지,37.556868,126.939603,closed,0.0,360,,393-5581,1990-09-05,관광숙박업,폐업,폐업,194849.138479032,450512.155519127,seoul_open_data,,0.0,0.0,
361,신촌 EVER8 레지던스 호텔,hotel,서대문구,서대문구,신촌권,"서울특별시 서대문구 신촌역로 7, 신촌푸르지오시티 14,15,22층 (대현동)",37.557422,126.93968,active,47.0,361,,02-364-0807,2014-12-23,가족호텔업,영업/정상,영업중,194855.910937446,450573.690449065,seoul_open_data,SINCHON EVER8 RESIDENCE HOTEL,22.0,7.0,3229.53
362,신라스테이서대문,hotel,서대문구,서대문구,,서울특별시 서대문구 충정로 76 (미근동),37.565157,126.963884,active,319.0,362,,6388-9000,2015-04-27,관광호텔업,영업/정상,영업중,196994.923867704,451431.128739436,seoul_open_data,,25.0,4.0,13529.18
363,신촌라싸 관광호텔,hotel,서대문구,서대문구,홍대권,서울특별시 서대문구 연세로2가길 3 (창천동),37.556109,126.934421,active,41.0,363,hongdae_area,02-393-1199,2016-02-01,관광호텔업,영업/정상,영업중,194391.16958802,450428.281096865,seoul_open_data,,13.0,2.0,1785.96
364,24게스트하우스 신촌에비뉴엘점,hostel,서대문구,서대문구,홍대권,"서울특별시 서대문구 명물길 19, 8,9,10층 (창천동, 경오빌딩)",37.557922,126.934808,active,23.0,364,fringe_hongdae,07088123755,2016-09-12,호스텔업,영업/정상,영업중,194425.547743193,450629.487978481,seoul_open_data,,10.0,2.0,402.48
365,서울그랜드호스텔 이대,hostel,서대문구,서대문구,신촌권,"서울특별시 서대문구 신촌로 155, 8층 (대현동, 해암빌딩)",37.556891,126.940516,active,19.0,365,,,2017-03-10,호스텔업,영업/정상,영업중,194929.750810335,450514.690947083,seoul_open_data,,8.0,2.0,512.62
366,서울 코지 호스텔,hostel,서대문구,서대문구,신촌권,"서울특별시 서대문구 신촌로 155, 6층 (대현동, 해암빌딩)",37.556891,126.940516,active,16.0,366,,023932415,2017-06-08,호스텔업,영업/정상,영업중,194929.750810335,450514.690947083,seoul_open_data,,8.0,2.0,420.0
367,호텔 밀하우스,hotel,서대문구,서대문구,홍대권,서울특별시 서대문구 연세로2나길 5 (창천동),37.556372,126.935053,active,47.0,367,fringe_hongdae,02-313-7050,2018-05-15,관광호텔업,영업/정상,영업중,194447.060323027,450457.441284914,seoul_open_data,,9.0,1.0,1670.64
368,디케이하우스(DK HOUSE),hostel,서대문구,서대문구,,"서울특별시 서대문구 이화여대1안길 15, 4~8층 (대현동)",37.557545,126.941358,active,8.0,368,,050713312137,2019-12-10,호스텔업,영업/정상,영업중,195004.191373545,450587.21669084,seoul_open_data,,8.0,0.0,484.66
369,위고인,hostel,서대문구,서대문구,신촌권,"서울특별시 서대문구 신촌로 141, 위고인호스텔 (대현동)",37.557022,126.938711,active,45.0,369,,02-393-9922,2020-03-09,호스텔업,영업/정상,영업중,194770.272306267,450529.307302535,seoul_open_data,,9.0,1.0,1324.68
370,렉시호텔,hotel,서대문구,서대문구,홍대권,서울특별시 서대문구 연세로2가길 14 (창천동),37.556603,126.934791,active,51.0,370,fringe_hongdae,02-363-4700,2021-03-23,관광호텔업,영업/정상,영업중,194423.876624727,450483.045265462,seoul_open_data,,9.0,1.0,1850.0
371,비욘드스위트(BEYOND SUITE),hostel,서대문구,서대문구,,서울특별시 서대문구 이화여대1길 42-3 (대현동),37.55732,126.9405,active,13.0,371,,02-2277-8030,2022-07-25,호스텔업,영업/정상,영업중,194928.380121094,450562.353002856,seoul_open_data,,14.0,1.0,874.29
372,이화블로섬하우스,hostel,서대문구,서대문구,,"서울특별시 서대문구 이화여대1안길 13, 2~8층 (대현동)",37.557555,126.941465,active,24.0,372,,,2023-06-14,호스텔업,영업/정상,영업중,195013.650484425,450588.358613375,seoul_open_data,,8.0,1.0,609.32
373,메이븐호텔,hotel,서대문구,서대문구,홍대권,"서울특별시 서대문구 연세로2가길 4, 피엔에스호텔 (창천동)",37.55614,126.934716,active,31.0,373,fringe_hongdae,070-4111-0811,2024-08-16,관광호텔업,영업/정상,영업중,194417.265399993,450431.708419531,seoul_open_data,,10.0,1.0,1573.18
374,화영호스텔,unknown,서대문구,서대문구,신촌권,서울특별시 서대문구 신촌로 157 (대현동),37.556911,126.940724,active,,374,,,2024-08-27,관광숙박업,영업/정상,영업중,194948.135636533,450516.885928437,seoul_open_data,,,,
375,노마드 스테이 인 홍대,hostel,서대문구,서대문구,홍대권,"서울특별시 서대문구 명물길 6, 6-7층 (창천동)",37.557311,126.934507,active,0.0,375,hongdae_area,,2025-07-28,호스텔업,영업/정상,영업중,194398.900504068,450561.690366905,seoul_open_data,,0.0,0.0,296.16
376,스테이 헬로 STAY HELLO,hostel,서대문구,서대문구,홍대권,"서울특별시 서대문구 명물길 6, 8층 (창천동)",37.557311,126.934507,active,7.0,376,hongdae_area,,2025-10-30,호스텔업,영업/정상,영업중,194398.900504068,450561.690366905,seoul_open_data,,9.0,2.0,127.18
377,루프서울 연희점,unknown,서대문구,서대문구,홍대권,"서울특별시 서대문구 동교로 294 (연희동, 루프서울 연희점)",37.565029,126.924846,active,,377,hongdae_area,,2026-03-05,관광숙박업,영업/정상,영업중,193545.864809438,451418.938439457,seoul_open_data,,,,
378,성원여관,motel_or_lodging,마포구,마포구,,서울특별시 마포구 합정동 366-2번지,37.547974,126.911921,closed,,378,,02 3222972,1958-10-04,일반숙박업,폐업,폐업,192402.234109794,449526.911448615,seoul_open_data,,,,
379,행화,motel_or_lodging,마포구,마포구,,서울특별시 마포구 아현동 425-11번지,37.552012,126.954403,closed,,379,,02  362 8645,1963-06-28,일반숙박업,폐업,폐업,196156.603326695,449972.490411799,seoul_open_data,,,,
380,제일,motel_or_lodging,마포구,마포구,,서울특별시 마포구 아현동 347-12번지,37.556743,126.948757,closed,,380,,0203125395,1963-12-19,일반숙박업,폐업,폐업,195657.906841527,450497.845380082,seoul_open_data,,,,
381,귀빈장여관,motel_or_lodging,마포구,마포구,신촌권,서울특별시 마포구 대흥동 12-42번지,,,closed,,381,,02 7153969,1964-12-23,일반숙박업,폐업,폐업,,,seoul_open_data,,,,
382,한성여인숙,motel_or_lodging,마포구,마포구,,서울특별시 마포구 공덕동 22-34번지,37.548865,126.955219,closed,,382,,02 7130760,1964-12-04,일반숙박업,폐업,폐업,196228.533799687,449623.183590608,seoul_open_data,,,,
383,동성여관,motel_or_lodging,마포구,마포구,,서울특별시 마포구 신공덕동 25-24번지,,,closed,,383,,02  713 9020,1965-07-02,일반숙박업,폐업,폐업,,,seoul_open_data,,,,
384,경보,motel_or_lodging,마포구,마포구,,서울특별시 마포구 도화동 4-94번지,37.541218,126.950041,closed,,384,,0207123622,1965-10-29,일반숙박업,폐업,폐업,195770.544295874,448774.650967743,seoul_open_data,,,,
385,대원,motel_or_lodging,마포구,마포구,,서울특별시 마포구 아현동 641-21번지,,,closed,,385,,02  362 8483,1965-08-30,일반숙박업,폐업,폐업,,,seoul_open_data,,,,
386,해주여인숙,motel_or_lodging,마포구,마포구,,서울특별시 마포구 공덕동 446-66번지,,,closed,,386,,0207157808,1965-08-30,일반숙박업,폐업,폐업,,,seoul_open_data,,,,
387,서강여관,motel_or_lodging,마포구,마포구,신촌권,서울특별시 마포구 노고산동 122-2번지,,,closed,,387,,02 7161868,1965-04-24,일반숙박업,폐업,폐업,,,seoul_open_data,,,,
388,용강여관,motel_or_lodging,마포구,마포구,,서울특별시 마포구 아현동 85-262번지,,,closed,,388,,02 3921043,1966-11-09,일반숙박업,폐업,폐업,,,seoul_open_data,,,,
389,수정여관,motel_or_lodging,마포구,마포구,,서울특별시 마포구 신공덕동 49-0번지,,,closed,,389,,0207120223,1966-08-02,일반숙박업,폐업,폐업,,,seoul_open_data,,,,
390,아더포레,motel_or_lodging,마포구,마포구,홍대권,서울특별시 마포구 신촌로16길 16 (노고산동),37.555029,126.931646,active,,390,hongdae_area,02 3226009,1966-11-22,일반숙박업,영업/정상,영업,194145.910119791,450308.589069852,seoul_open_data,,,,
391,센시,motel_or_lodging,마포구,마포구,,서울특별시 마포구 양화진2길 41 (합정동),37.547948,126.907862,closed,,391,,02 3345847,1966-07-21,일반숙박업,폐업,폐업,192043.507297118,449524.361048163,seoul_open_data,,,,
392,동호여인숙,motel_or_lodging,마포구,마포구,,서울특별시 마포구 아현동 404-5번지,,,closed,,392,,02 3641541,1966-04-23,일반숙박업,폐업,폐업,,,seoul_open_data,,,,
393,신도여관,motel_or_lodging,마포구,마포구,,서울특별시 마포구 신촌로30길 3-12 (아현동),37.556818,126.94977,active,,393,,02 3136584,1966-09-13,일반숙박업,영업/정상,영업,195747.454473835,450506.098536664,seoul_open_data,,,,
394,삼희여관,motel_or_lodging,마포구,마포구,,서울특별시 마포구 아현동 85-158번지,,,closed,,394,,02 3629035,1966-11-11,일반숙박업,폐업,폐업,,,seoul_open_data,,,,
395,오성여인숙,motel_or_lodging,마포구,마포구,,서울특별시 마포구 공덕동 446-76번지,,,closed,,395,,02 7152531,1966-09-23,일반숙박업,폐업,폐업,,,seoul_open_data,,,,
396,복여관,motel_or_lodging,마포구,마포구,홍대권,서울특별시 마포구 노고산동 40-51번지,37.555087,126.935434,closed,,396,fringe_hongdae,0207154737,1966-07-02,일반숙박업,폐업,폐업,194480.62071727,450314.778015298,seoul_open_data,,,,
397,귀빈,motel_or_lodging,마포구,마포구,,서울특별시 마포구 창전동 187-6번지,,,closed,,397,,0203234140,1966-09-19,일반숙박업,폐업,폐업,,,seoul_open_data,,,,
398,마포장,motel_or_lodging,마포구,마포구,,서울특별시 마포구 신수동 446-9번지,,,closed,,398,,02 7015041,1967-06-05,일반숙박업,폐업,폐업,,,seoul_open_data,,,,
399,동신,motel_or_lodging,마포구,마포구,신촌권,서울특별시 마포구 노고산동 1-49번지,37.555983,126.939743,closed,,399,,0207177829,1967-05-10,일반숙박업,폐업,폐업,194861.430793984,450413.950059959,seoul_open_data,,,,
400,서강,motel_or_lodging,마포구,마포구,,서울특별시 마포구 상수동 36-1번지,,,closed,,400,,02 3220688,1967-11-08,일반숙박업,폐업,폐업,,,seoul_open_data,,,,
401,강남여관,motel_or_lodging,마포구,마포구,홍대권,서울특별시 마포구 동교동 153-8번지,37.558519,126.920745,closed,,401,core_hongdae,0203363681,1967-08-24,일반숙박업,폐업,폐업,193182.998431004,450696.608458741,seoul_open_data,,,,
402,성,motel_or_lodging,마포구,마포구,,서울특별시 마포구 아현동 115-0번지,,,closed,,402,,0203637306,1967-12-02,일반숙박업,폐업,폐업,,,seoul_open_data,,,,
403,개성여관,motel_or_lodging,마포구,마포구,,서울특별시 마포구 아현동 345-8번지,37.55659,126.94931,closed,,403,,02 3631401,1967-12-11,일반숙박업,폐업,폐업,195706.75333782,450480.802410763,seoul_open_data,,,,
404,귀빈장,motel_or_lodging,마포구,마포구,,서울특별시 마포구 공덕동 38-120번지,,,closed,,404,,0207134801,1967-05-27,일반숙박업,폐업,폐업,,,seoul_open_data,,,,
405,한양여인숙,motel_or_lodging,마포구,마포구,,서울특별시 마포구 신공덕동 25-18번지,,,closed,,405,,02 7122820,1967-08-04,일반숙박업,폐업,폐업,,,seoul_open_data,,,,
406,신일여관,motel_or_lodging,마포구,마포구,,서울특별시 마포구 신공덕동 27-4번지,,,closed,,406,,02 7192573,1967-05-10,일반숙박업,폐업,폐업,,,seoul_open_data,,,,
407,태양,motel_or_lodging,마포구,마포구,,서울특별시 마포구 용강동 26-25번지,,,closed,,407,,0207166022,1967-05-20,일반숙박업,폐업,폐업,,,seoul_open_data,,,,
408,고려장,motel_or_lodging,마포구,마포구,,서울특별시 마포구 신수동 446-6번지,37.543845,126.933905,closed,,408,,0207153832,1967-09-02,일반숙박업,폐업,폐업,194344.618792046,449067.150289253,seoul_open_data,,,,
409,대도여인숙,motel_or_lodging,마포구,마포구,,서울특별시 마포구 합정동 415-1번지,,,closed,,409,,02 3341067,1967-11-04,일반숙박업,폐업,폐업,,,seoul_open_data,,,,
410,조일,motel_or_lodging,마포구,마포구,,서울특별시 마포구 공덕동 33-1번지,,,closed,,410,,0207131379,1968-06-05,일반숙박업,폐업,폐업,,,seoul_open_data,,,,
411,쉼’스테이,motel_or_lodging,마포구,마포구,,"서울특별시 마포구 마포대로14길 21, 3층 (공덕동)",37.548484,126.95413,active,,411,,02 7119239,1968-09-25,일반숙박업,영업/정상,영업,196132.264207886,449580.978639028,seoul_open_data,,,,
412,한일여관,motel_or_lodging,마포구,마포구,,서울특별시 마포구 도화길 12-5 (도화동),37.539777,126.945094,closed,,412,,02 7120825,1968-10-24,일반숙박업,폐업,폐업,195333.250490341,448614.970068925,seoul_open_data,,,,
413,미성,motel_or_lodging,마포구,마포구,홍대권,서울특별시 마포구 양화로19길 20 (동교동),37.558382,126.921118,closed,,413,core_hongdae,02  324 8265,1968-11-08,일반숙박업,폐업,폐업,193215.96228208,450681.443815072,seoul_open_data,,,,
414,서울,motel_or_lodging,마포구,마포구,,서울특별시 마포구 신공덕동 13-8번지,37.545584,126.952493,closed,,414,,0207122612,1968-01-09,일반숙박업,폐업,폐업,195987.465145984,449259.100488401,seoul_open_data,,,,
415,신도여관,motel_or_lodging,마포구,마포구,,서울특별시 마포구 신공덕동 5-3번지,37.547718,126.954258,closed,,415,,0207129256,1968-04-15,일반숙박업,폐업,폐업,196143.573598214,449495.948195083,seoul_open_data,,,,
416,부산여관,motel_or_lodging,마포구,마포구,,서울특별시 마포구 도화동 4-54번지,37.54148,126.950062,closed,,416,,02 7167963,1968-08-24,일반숙박업,폐업,폐업,195772.389417498,448803.807540034,seoul_open_data,,,,
417,명성여관,motel_or_lodging,마포구,마포구,,서울특별시 마포구 신수동 71-5번지,,,closed,,417,,0207151050,1968-07-24,일반숙박업,폐업,폐업,,,seoul_open_data,,,,
418,일육육삼,motel_or_lodging,마포구,마포구,홍대권,서울특별시 마포구 서강로16길 63 (신수동),37.55153,126.934066,active,,418,fringe_hongdae,02 7159006,1968-12-31,일반숙박업,영업/정상,영업,194359.499233474,449920.023766153,seoul_open_data,,,,
419,혜성,motel_or_lodging,마포구,마포구,,서울특별시 마포구 신촌로 190-4 (염리동),37.55651,126.944232,active,,419,,02 7173670,1968-08-21,일반숙박업,영업/정상,영업,195258.139337564,450472.26234619,seoul_open_data,,,,
420,염리여관,motel_or_lodging,마포구,마포구,,서울특별시 마포구 염리동 147-4번지,37.547488,126.942726,closed,,420,,0207156609,1968-12-10,일반숙박업,폐업,폐업,195124.454332553,449470.987101134,seoul_open_data,,,,
421,수정여인숙,motel_or_lodging,마포구,마포구,,서울특별시 마포구 염리동 160-55번지,,,closed,,421,,0207151581,1968-12-16,일반숙박업,폐업,폐업,,,seoul_open_data,,,,
422,대성여관,motel_or_lodging,마포구,마포구,신촌권,서울특별시 마포구 대흥동 327-1번지,37.546527,126.93893,closed,,422,,,1968-06-27,일반숙박업,폐업,폐업,194788.91323706,449364.512627428,seoul_open_data,,,,
423,아담,motel_or_lodging,마포구,마포구,,서울특별시 마포구 굴레방로7길 52 (아현동),37.556516,126.949784,closed,,423,,02 3651155,1969-11-21,일반숙박업,폐업,폐업,195748.70543368,450472.62386034,seoul_open_data,,,,
424,미화여관,motel_or_lodging,마포구,마포구,,서울특별시 마포구 신촌로28가길 10 (아현동),37.556551,126.947466,closed,,424,,02 3631278,1969-11-01,일반숙박업,폐업,폐업,195543.853467745,450476.619369397,seoul_open_data,,,,
425,청하,motel_or_lodging,마포구,마포구,,서울특별시 마포구 하중동 82-7번지,,,closed,,425,,0203229007,1969-07-10,일반숙박업,폐업,폐업,,,seoul_open_data,,,,
426,서울장여관,motel_or_lodging,마포구,마포구,홍대권,서울특별시 마포구 서교동 358-11번지,37.553603,126.920249,closed,,426,hongdae_area,02 3342928,1969-10-28,일반숙박업,폐업,폐업,193138.701887647,450151.00343191,seoul_open_data,,,,
427,동경모텔,motel_or_lodging,마포구,마포구,홍대권,서울특별시 마포구 홍익로5안길 34 (서교동),37.553394,126.918089,active,,427,hongdae_area,02 3342459,1969-12-03,일반숙박업,영업/정상,영업,192947.827885766,450128.040762411,seoul_open_data,,,,
428,동림,motel_or_lodging,마포구,마포구,,서울특별시 마포구 도화길 14-3 (도화동),37.540061,126.945154,closed,,428,,02 7169048,1969-02-13,일반숙박업,폐업,폐업,195338.559287826,448646.478961826,seoul_open_data,,,,
429,신촌여인숙,motel_or_lodging,마포구,마포구,,서울특별시 마포구 신수동 70-18번지,,,closed,,429,,02 7047785,1969-01-10,일반숙박업,폐업,폐업,,,seoul_open_data,,,,
430,크로바여관,motel_or_lodging,마포구,마포구,,서울특별시 마포구 숭문길 7-1 (염리동),37.546914,126.942419,closed,,430,,02 7012231,1969-04-04,일반숙박업,폐업,폐업,195097.304983152,449407.267648145,seoul_open_data,,,,
431,성,motel_or_lodging,마포구,마포구,신촌권,서울특별시 마포구 대흥동 254-0번지,,,closed,,431,,0207154657,1969-09-02,일반숙박업,폐업,폐업,,,seoul_open_data,,,,
432,유림장,motel_or_lodging,마포구,마포구,,서울특별시 마포구 합정동 384-67번지,,,closed,,432,,0203376012,1969-03-18,일반숙박업,폐업,폐업,,,seoul_open_data,,,,
433,대림여인숙,motel_or_lodging,마포구,마포구,,서울특별시 마포구 합정동 416-47번지,,,closed,,433,,0203227141,1969-11-03,일반숙박업,폐업,폐업,,,seoul_open_data,,,,
434,신포,motel_or_lodging,마포구,마포구,,서울특별시 마포구 공덕동 249-25번지,37.546429,126.95111,closed,,434,,0207135943,1969-06-19,일반숙박업,폐업,폐업,195865.274006782,449352.989107253,seoul_open_data,,,,
435,대호,motel_or_lodging,마포구,마포구,,서울특별시 마포구 합정동 382-6번지,,,closed,,435,,0203224862,1969-12-19,일반숙박업,폐업,폐업,,,seoul_open_data,,,,
436,덕윤여관,motel_or_lodging,마포구,마포구,,서울특별시 마포구 신수동 449-2번지,,,closed,,436,,0207150664,1969-10-17,일반숙박업,폐업,폐업,,,seoul_open_data,,,,
437,보성,motel_or_lodging,마포구,마포구,,서울특별시 마포구 아현동 380-11번지,37.552826,126.954727,closed,,437,,02 3628111,1970-09-01,일반숙박업,폐업,폐업,196185.208727483,450062.871275569,seoul_open_data,,,,
438,오복,motel_or_lodging,마포구,마포구,,서울특별시 마포구 아현동 100-2번지,,,closed,,438,,02 3630074,1970-09-10,일반숙박업,폐업,폐업,,,seoul_open_data,,,,
439,안신장여관,motel_or_lodging,마포구,마포구,,서울특별시 마포구 마포대로14가길 8-10 (공덕동),37.549044,126.953524,closed,,439,,02 7181403,1970-12-23,일반숙박업,폐업,폐업,196078.729863602,449643.152094287,seoul_open_data,,,,
440,마포레지던스,motel_or_lodging,마포구,마포구,,서울특별시 마포구 마포대로4라길 21 (도화동),37.537397,126.94366,active,,440,,02  32753203,1970-10-10,일반숙박업,영업/정상,영업,195206.306035862,448350.940035676,seoul_open_data,,,,
441,호성여관,motel_or_lodging,마포구,마포구,신촌권,서울특별시 마포구 대흥로30길 23 (염리동),37.556437,126.944481,active,,441,,02 7180880,1970-06-23,일반숙박업,영업/정상,영업,195280.139411113,450464.070599256,seoul_open_data,,,,
442,남양,motel_or_lodging,마포구,마포구,,서울특별시 마포구 월드컵로11길 8 (망원동),37.554936,126.907522,active,,442,,02 3345330,1970-10-20,일반숙박업,영업/정상,영업,192014.240969391,450300.013816674,seoul_open_data,,,,
443,국제여관,motel_or_lodging,마포구,마포구,,서울특별시 마포구 공덕동 237-6번지 공덕252번지에서 지번변경,,,closed,,443,,0232733926,1970-06-01,일반숙박업,폐업,폐업,,,seoul_open_data,,,,
444,나루호스텔,motel_or_lodging,마포구,마포구,,서울특별시 마포구 마포대로12길 31 (공덕동),37.547437,126.951988,active,,444,,02 7164100,1970-08-13,일반숙박업,영업/정상,영업,195942.959432834,449464.869763408,seoul_open_data,,,,
445,삼화,motel_or_lodging,마포구,마포구,,서울특별시 마포구 염리동 8-67번지,37.556422,126.944128,closed,,445,,02 7160488,1970-05-18,일반숙박업,폐업,폐업,195248.88804606,450462.434813545,seoul_open_data,,,,
446,금산,motel_or_lodging,마포구,마포구,,서울특별시 마포구 염리동 9-54번지,37.555733,126.943846,closed,,446,,02 7174278,1970-10-26,일반숙박업,폐업,폐업,195223.96300627,450385.976329791,seoul_open_data,,,,
447,희모텔,motel_or_lodging,마포구,마포구,신촌권,서울특별시 마포구 대흥로25길 6 (대흥동),,,closed,,447,,02 7155801,1970-07-30,일반숙박업,폐업,폐업,,,seoul_open_data,,,,
448,노고산,motel_or_lodging,마포구,마포구,홍대권,서울특별시 마포구 노고산동 107-23번지,37.55398,126.933741,closed,,448,fringe_hongdae,0207194318,1970-04-01,일반숙박업,폐업,폐업,194330.971866907,450192.028580956,seoul_open_data,,,,
449,대호,motel_or_lodging,마포구,마포구,홍대권,서울특별시 마포구 서교동 383-8번지,37.552279,126.909672,closed,,449,fringe_hongdae,0203370140,1970-07-23,일반숙박업,폐업,폐업,192203.913646842,450004.894744385,seoul_open_data,,,,
450,선화,motel_or_lodging,마포구,마포구,,서울특별시 마포구 공덕동 439-3번지,,,closed,,450,,02 7123349,1971-08-30,일반숙박업,폐업,폐업,,,seoul_open_data,,,,
451,록수,motel_or_lodging,마포구,마포구,,서울특별시 마포구 마포대로12길 37 (공덕동),37.547141,126.951877,active,,451,,02 7120011,1971-09-10,일반숙박업,영업/정상,영업,195933.125156914,449431.945466531,seoul_open_data,,,,
452,렉스모텔,motel_or_lodging,마포구,마포구,,서울특별시 마포구 만리재로 20-16 (신공덕동),37.543673,126.950316,closed,,452,,02 7016253,1971-09-30,일반숙박업,폐업,폐업,195794.943097613,449047.163138614,seoul_open_data,,,,
453,뉴타운모텔,motel_or_lodging,마포구,마포구,홍대권,서울특별시 마포구 백범로2길 32 (노고산동),37.553699,126.932441,closed,,453,hongdae_area,02 7283346,1971-02-09,일반숙박업,폐업,폐업,194216.059870404,450160.932044659,seoul_open_data,,,,
454,DH 신촌하우스,motel_or_lodging,마포구,마포구,홍대권,서울특별시 마포구 백범로 22-6 (노고산동),37.55264,126.933911,closed,,454,fringe_hongdae,02 7157055,1971-02-22,일반숙박업,폐업,폐업,194345.820437962,450043.220195204,seoul_open_data,,,,
455,화성,motel_or_lodging,마포구,마포구,홍대권,서울특별시 마포구 노고산동 31-25번지,37.554497,126.935069,closed,,455,fringe_hongdae,02 7153483,1971-04-16,일반숙박업,폐업,폐업,194448.282122109,450249.326904288,seoul_open_data,,,,
456,고려,motel_or_lodging,마포구,마포구,홍대권,서울특별시 마포구 노고산동 109-154번지,37.55359,126.93218,closed,,456,hongdae_area,02 7155562,1971-11-10,일반숙박업,폐업,폐업,194192.994417283,450148.819408241,seoul_open_data,,,,
457,동선,motel_or_lodging,마포구,마포구,홍대권,서울특별시 마포구 창전동 15-11번지,37.549414,126.929362,closed,,457,fringe_hongdae,02 3224086,1971-12-23,일반숙박업,폐업,폐업,193943.61457054,449685.511177483,seoul_open_data,,,,
458,에이레이 모텔,motel_or_lodging,마포구,마포구,,서울특별시 마포구 와우산로3길 34 (상수동),37.545941,126.918171,active,,458,,02 3323301,1971-08-19,일반숙박업,영업/정상,영업,192954.329037977,449300.786640543,seoul_open_data,,,,
459,영스테이(YOUNG STAY),motel_or_lodging,마포구,마포구,,서울특별시 마포구 희우정로3길 13 (합정동),37.549439,126.904203,closed,,459,,02 3347635,1971-11-05,일반숙박업,폐업,폐업,191720.40000408,449690.251874203,seoul_open_data,,,,
460,부흥,motel_or_lodging,마포구,마포구,,서울특별시 마포구 망원동 373-4번지,,,closed,,460,,02 3355440,1971-08-10,일반숙박업,폐업,폐업,,,seoul_open_data,,,,
461,성산장,motel_or_lodging,마포구,마포구,홍대권,서울특별시 마포구 월드컵북로9길 7 (성산동),37.558753,126.914123,active,,461,fringe_hongdae,02 3329358,1971-08-28,일반숙박업,영업/정상,영업,192597.95055552,450723.079731671,seoul_open_data,,,,
462,동,motel_or_lodging,마포구,마포구,,서울특별시 마포구 도화동 184-20번지,37.541595,126.949083,closed,,462,,0207123444,1971-10-13,일반숙박업,폐업,폐업,195685.867227229,448816.543185433,seoul_open_data,,,,
463,신도,motel_or_lodging,마포구,마포구,신촌권,서울특별시 마포구 노고산동 40-45번지,,,closed,,463,,02 7155241,1971-10-23,일반숙박업,폐업,폐업,,,seoul_open_data,,,,
464,신일여인숙,motel_or_lodging,마포구,마포구,,서울특별시 마포구 합정동 382-25번지,,,closed,,464,,0203342086,1971-06-17,일반숙박업,폐업,폐업,,,seoul_open_data,,,,
465,일신,motel_or_lodging,마포구,마포구,,서울특별시 마포구 신수동 85-69번지,37.54892,126.936089,closed,,465,,0203240017,1971-08-28,일반숙박업,폐업,폐업,194538.038908445,449630.221392721,seoul_open_data,,,,
466,삼호,motel_or_lodging,마포구,마포구,,서울특별시 마포구 중동 314-0번지,37.569352,126.908733,closed,,466,,0203731850,1971-12-24,일반숙박업,폐업,폐업,192122.785022783,451899.970054527,seoul_open_data,,,,
467,가나모텔,motel_or_lodging,마포구,마포구,,서울특별시 마포구 삼개로 13 (도화동),37.53913,126.944786,active,,467,,02 7127192,1971-07-26,일반숙박업,영업/정상,영업,195305.983896055,448543.222514718,seoul_open_data,,,,
468,대도,motel_or_lodging,마포구,마포구,신촌권,서울특별시 마포구 대흥동 12-64번지,,,closed,,468,,0207179401,1971-06-17,일반숙박업,폐업,폐업,,,seoul_open_data,,,,
469,금풍장,motel_or_lodging,마포구,마포구,,서울특별시 마포구 신촌로 262 (아현동),37.556994,126.951943,closed,,469,,02 3631215,1971-11-27,일반숙박업,폐업,폐업,195939.503825641,450525.545395676,seoul_open_data,,,,
470,금강여관,motel_or_lodging,마포구,마포구,,서울특별시 마포구 신공덕동 63-6번지,,,closed,,470,,0207122117,1971-02-01,일반숙박업,폐업,폐업,,,seoul_open_data,,,,
471,Hostel GAON,motel_or_lodging,마포구,마포구,홍대권,서울특별시 마포구 백범로1길 8 (노고산동),37.554204,126.934633,closed,,471,fringe_hongdae,02 7154040,1971-11-23,일반숙박업,폐업,폐업,194409.755123725,450216.836750105,seoul_open_data,,,,
472,청기와여관,motel_or_lodging,마포구,마포구,홍대권,서울특별시 마포구 성미산로 74 (성산동),37.559805,126.913322,closed,,472,fringe_hongdae,02 3348042,1971-11-23,일반숙박업,폐업,폐업,192527.25936157,450839.913597938,seoul_open_data,,,,
473,성미,motel_or_lodging,마포구,마포구,,서울특별시 마포구 성미산로 3 (성산동),37.558289,126.905744,active,,473,,02 3240017,1971-08-28,일반숙박업,영업/정상,영업,191857.555789257,450672.297140455,seoul_open_data,,,,
474,삼화,motel_or_lodging,마포구,마포구,,서울특별시 마포구 신공덕동 63-5번지,,,closed,,474,,02 7122933,1972-02-10,일반숙박업,폐업,폐업,,,seoul_open_data,,,,
475,낙원,motel_or_lodging,마포구,마포구,신촌권,서울특별시 마포구 대흥로 187-1 (대흥동),,,closed,,475,,02 7153920,1972-12-02,일반숙박업,폐업,폐업,,,seoul_open_data,,,,
476,포근 합정,motel_or_lodging,마포구,마포구,,서울특별시 마포구 월드컵로7길 13-7 (합정동),37.552369,126.908553,active,,476,,02 3349235,1972-07-15,일반숙박업,영업/정상,영업,192105.073652802,450015.059166496,seoul_open_data,,,,
477,귀빈장여관,motel_or_lodging,마포구,마포구,홍대권,서울특별시 마포구 월드컵북로 60 (성산동),37.559534,126.914433,closed,,477,fringe_hongdae,02 3222719,1972-08-28,일반숙박업,폐업,폐업,192625.416664653,450809.776524367,seoul_open_data,,,,
478,대명,motel_or_lodging,마포구,마포구,,서울특별시 마포구 굴레방로7길 34 (아현동),37.556342,126.950764,active,,478,,,1972-10-20,일반숙박업,영업/정상,영업,195835.219793793,450453.237339846,seoul_open_data,,,,
479,부영,motel_or_lodging,마포구,마포구,,서울특별시 마포구 공덕동 429-9번지,,,closed,,479,,0207133267,1972-04-12,일반숙박업,폐업,폐업,,,seoul_open_data,,,,
480,창신여인숙,motel_or_lodging,마포구,마포구,,서울특별시 마포구 공덕동 64-1번지,,,closed,,480,,02 7120346,1972-10-13,일반숙박업,폐업,폐업,,,seoul_open_data,,,,
481,용강,motel_or_lodging,마포구,마포구,,서울특별시 마포구 용강동 40-2번지,37.539704,126.941322,closed,,481,,02 7153079,1972-01-31,일반숙박업,폐업,폐업,194999.81899549,448607.075232254,seoul_open_data,,,,
482,중앙,motel_or_lodging,마포구,마포구,,서울특별시 마포구 용강동 115-15번지,,,closed,,482,,02 7176086,1972-01-14,일반숙박업,폐업,폐업,,,seoul_open_data,,,,
483,대,motel_or_lodging,마포구,마포구,신촌권,서울특별시 마포구 대흥동 241-2번지,37.546784,126.94084,closed,,483,,0207150213,1972-05-18,일반숙박업,폐업,폐업,194957.726818874,449392.94800101,seoul_open_data,,,,
484,경일,motel_or_lodging,마포구,마포구,,서울특별시 마포구 염리동 160-2번지,,,closed,,484,,02 7165685,1972-06-14,일반숙박업,폐업,폐업,,,seoul_open_data,,,,
485,아담,motel_or_lodging,마포구,마포구,홍대권,서울특별시 마포구 노고산동 109-144번지,37.553606,126.932351,closed,,485,hongdae_area,0200000000,1972-06-10,일반숙박업,폐업,폐업,194208.068454966,450150.578145062,seoul_open_data,,,,
486,정화여인숙,motel_or_lodging,마포구,마포구,홍대권,서울특별시 마포구 노고산동 54-36번지,37.554937,126.930789,closed,,486,hongdae_area,0203240835,1972-12-23,일반숙박업,폐업,폐업,194070.123427035,450298.395466676,seoul_open_data,,,,
487,형제,motel_or_lodging,마포구,마포구,홍대권,서울특별시 마포구 동교동 167-24번지,37.557692,126.922499,closed,,487,core_hongdae,02 3347240,1972-09-19,일반숙박업,폐업,폐업,193337.915881287,450604.707927367,seoul_open_data,,,,
488,정화여인숙,motel_or_lodging,마포구,마포구,홍대권,서울특별시 마포구 노고산동 54-36번지,37.554937,126.930789,closed,,486,hongdae_area,0203240835,1972-12-23,일반숙박업,폐업,폐업,194070.123427035,450298.395466676,seoul_open_data,,,,
489,일강,motel_or_lodging,마포구,마포구,,서울특별시 마포구 공덕동 394-33번지,,,closed,,488,,0207168955,1973-05-14,일반숙박업,폐업,폐업,,,seoul_open_data,,,,
490,오복,motel_or_lodging,마포구,마포구,,서울특별시 마포구 도화동 196-29번지,37.541109,126.9485,closed,,489,,0207120720,1973-10-02,일반숙박업,폐업,폐업,195634.334934326,448762.652741445,seoul_open_data,,,,
491,그랜드여관,motel_or_lodging,마포구,마포구,신촌권,서울특별시 마포구 신촌로 182 (대흥동),37.556392,126.942745,closed,,490,,02 7160885,1973-04-10,일반숙박업,폐업,폐업,195126.674663262,450459.147152486,seoul_open_data,,,,
492,중앙,motel_or_lodging,마포구,마포구,홍대권,서울특별시 마포구 서교동 459-5번지,37.555209,126.913308,closed,,491,fringe_hongdae,0203376204,1973-09-08,일반숙박업,폐업,폐업,192525.510535974,450329.86573636,seoul_open_data,,,,
493,대동여인숙,motel_or_lodging,마포구,마포구,,서울특별시 마포구 공덕동 7-23번지,37.549763,126.960557,closed,,492,,02 7131731,1973-02-20,일반숙박업,폐업,폐업,196700.29270525,449722.697649952,seoul_open_data,,,,
494,명보,motel_or_lodging,마포구,마포구,,서울특별시 마포구 염리동 82-4번지,37.548563,126.942435,closed,,493,,02 7152088,1973-08-22,일반숙박업,폐업,폐업,195098.783236044,449590.223310973,seoul_open_data,,,,
495,신흥,motel_or_lodging,마포구,마포구,,서울특별시 마포구 염리동 14-106번지,,,closed,,494,,02 7160943,1973-07-07,일반숙박업,폐업,폐업,,,seoul_open_data,,,,
